{
  "timestamp": 1783133497.2523084,
  "restaurants": [
    {
      "id": 516368792,
      "name": "ラーメン花月",
      "name_en": "Ramen Kagetsu",
      "lat": 35.691229,
      "lon": 139.7687126,
      "amenity": "fast_food",
      "amenity_label": "ファストフード",
      "cuisine": "",
      "opening_hours": "",
      "phone": "",
      "website": "",
      "addr": ""
    },
    {
      "id": 654593051,
      "name": "ドトールコーヒーショップ",
      "name_en": "Doutor Coffee Shop",
      "lat": 35.687511,
      "lon": 139.778414,
      "amenity": "cafe",
      "amenity_label": "カフェ",
      "cuisine": "coffee_shop",
      "opening_hours": "Mo-Fr 07:00-18:00; Sa 07:30-14:00; Su,PH off",
      "phone": "+81 3-5695-1680",
      "website": "https://www.doutor.co.jp/dcs/",
      "addr": ""
    },
    {
      "id": 702355911,
      "name": "Blondie",
      "name_en": "",
      "lat": 35.692444,
      "lon": 139.76632,
      "amenity": "bar",
      "amenity_label": "バー",
      "cuisine": "",
      "opening_hours": "",
      "phone": "",
      "website": "",
      "addr": ""
    },
    {
      "id": 860337434,
      "name": "大斗",
      "name_en": "",
      "lat": 35.6911098,
      "lon": 139.7782863,
      "amenity": "fast_food",
      "amenity_label": "ファストフード",
      "cuisine": "ramen",
      "opening_hours": "",
      "phone": "",
      "website": "",
      "addr": ""
    },
    {
      "id": 1064983568,
      "name": "とんこつラーメン風龍",
      "name_en": "",
      "lat": 35.692742,
      "lon": 139.770947,
      "amenity": "fast_food",
      "amenity_label": "ファストフード",
      "cuisine": "",
      "opening_hours": "",
      "phone": "",
      "website": "",
      "addr": ""
    },
    {
      "id": 1327332377,
      "name": "ドトールコーヒーショップ",
      "name_en": "Doutor Coffee Shop",
      "lat": 35.6754844,
      "lon": 139.7695215,
      "amenity": "cafe",
      "amenity_label": "カフェ",
      "cuisine": "coffee_shop",
      "opening_hours": "Mo-Fr 06:45-21:00; Sa 08:00-19:30; Su,PH 08:00-19:00",
      "phone": "+81 3-5250-7780",
      "website": "https://www.doutor.co.jp/dcs/",
      "addr": ""
    },
    {
      "id": 1327961918,
      "name": "ほっかほっか亭",
      "name_en": "Hokka Hokka Tei",
      "lat": 35.6757334,
      "lon": 139.7679544,
      "amenity": "fast_food",
      "amenity_label": "ファストフード",
      "cuisine": "japanese",
      "opening_hours": "",
      "phone": "",
      "website": "",
      "addr": ""
    },
    {
      "id": 1327962129,
      "name": "春よい",
      "name_en": "Haru Yoi",
      "lat": 35.6755065,
      "lon": 139.768212,
      "amenity": "pub",
      "amenity_label": "パブ",
      "cuisine": "",
      "opening_hours": "",
      "phone": "",
      "website": "",
      "addr": ""
    },
    {
      "id": 1367460872,
      "name": "主水",
      "name_en": "Mondo",
      "lat": 35.6857074,
      "lon": 139.7743952,
      "amenity": "restaurant",
      "amenity_label": "レストラン",
      "cuisine": "",
      "opening_hours": "",
      "phone": "",
      "website": "",
      "addr": ""
    },
    {
      "id": 1367460884,
      "name": "天松 (Tenmatsu) 'Mark W'",
      "name_en": "Tenmatsu 'Mark W'",
      "lat": 35.6844158,
      "lon": 139.7749541,
      "amenity": "restaurant",
      "amenity_label": "レストラン",
      "cuisine": "tenpura",
      "opening_hours": "",
      "phone": "",
      "website": "",
      "addr": ""
    },
    {
      "id": 1367460898,
      "name": "カフェ・ベローチェ",
      "name_en": "CAFE VELOCE",
      "lat": 35.6848003,
      "lon": 139.7753701,
      "amenity": "cafe",
      "amenity_label": "カフェ",
      "cuisine": "coffee_shop",
      "opening_hours": "Mo-Su 07:00-22:00",
      "phone": "+81 3-3279-6555",
      "website": "https://chatnoir-company.com/chatnoir/html/brand/brand_veloce.html",
      "addr": ""
    },
    {
      "id": 1367460908,
      "name": "吉田",
      "name_en": "",
      "lat": 35.685462,
      "lon": 139.77422,
      "amenity": "restaurant",
      "amenity_label": "レストラン",
      "cuisine": "",
      "opening_hours": "",
      "phone": "",
      "website": "",
      "addr": ""
    },
    {
      "id": 1367460913,
      "name": "スターバックス",
      "name_en": "Starbucks",
      "lat": 35.6847824,
      "lon": 139.7748973,
      "amenity": "cafe",
      "amenity_label": "カフェ",
      "cuisine": "coffee_shop",
      "opening_hours": "Mo-Sa 06:30-22:00; Su,PH 08:00-21:00",
      "phone": "+81 3-5200-2616",
      "website": "https://www.starbucks.co.jp/",
      "addr": ""
    },
    {
      "id": 1367460915,
      "name": "うどん おにやんま",
      "name_en": "",
      "lat": 35.6814028,
      "lon": 139.7760389,
      "amenity": "fast_food",
      "amenity_label": "ファストフード",
      "cuisine": "",
      "opening_hours": "",
      "phone": "",
      "website": "",
      "addr": ""
    },
    {
      "id": 1367460943,
      "name": "越前おろしそば",
      "name_en": "",
      "lat": 35.685132,
      "lon": 139.774952,
      "amenity": "restaurant",
      "amenity_label": "レストラン",
      "cuisine": "",
      "opening_hours": "",
      "phone": "",
      "website": "",
      "addr": ""
    },
    {
      "id": 1367460953,
      "name": "由○",
      "name_en": "",
      "lat": 35.6845269,
      "lon": 139.7755172,
      "amenity": "restaurant",
      "amenity_label": "レストラン",
      "cuisine": "",
      "opening_hours": "",
      "phone": "",
      "website": "",
      "addr": ""
    },
    {
      "id": 1367460955,
      "name": "小諸そば",
      "name_en": "Komoro Soba",
      "lat": 35.6904076,
      "lon": 139.7724278,
      "amenity": "fast_food",
      "amenity_label": "ファストフード",
      "cuisine": "",
      "opening_hours": "",
      "phone": "",
      "website": "",
      "addr": ""
    },
    {
      "id": 1367460957,
      "name": "寿司貞",
      "name_en": "Sushi Sada",
      "lat": 35.6845399,
      "lon": 139.7756034,
      "amenity": "restaurant",
      "amenity_label": "レストラン",
      "cuisine": "sushi",
      "opening_hours": "",
      "phone": "",
      "website": "",
      "addr": ""
    },
    {
      "id": 1367460986,
      "name": "トラットラ・イタリア",
      "name_en": "Trattoria ItaLia",
      "lat": 35.6847143,
      "lon": 139.7748146,
      "amenity": "restaurant",
      "amenity_label": "レストラン",
      "cuisine": "",
      "opening_hours": "11:30-22:30",
      "phone": "+81-3-6202-0095",
      "website": "",
      "addr": ""
    },
    {
      "id": 1423719447,
      "name": "生駒軒",
      "name_en": "Ikomaken",
      "lat": 35.681295,
      "lon": 139.777585,
      "amenity": "restaurant",
      "amenity_label": "レストラン",
      "cuisine": "",
      "opening_hours": "",
      "phone": "",
      "website": "",
      "addr": ""
    },
    {
      "id": 1423719448,
      "name": "備長吉兆や",
      "name_en": "",
      "lat": 35.6816238,
      "lon": 139.7764957,
      "amenity": "pub",
      "amenity_label": "パブ",
      "cuisine": "",
      "opening_hours": "",
      "phone": "",
      "website": "",
      "addr": ""
    },
    {
      "id": 1423719464,
      "name": "正香園",
      "name_en": "",
      "lat": 35.681355,
      "lon": 139.777423,
      "amenity": "restaurant",
      "amenity_label": "レストラン",
      "cuisine": "",
      "opening_hours": "",
      "phone": "",
      "website": "",
      "addr": ""
    },
    {
      "id": 1423728707,
      "name": "サンマルクカフェ",
      "name_en": "Saint Marc Cafe",
      "lat": 35.6793997,
      "lon": 139.7720539,
      "amenity": "cafe",
      "amenity_label": "カフェ",
      "cuisine": "coffee_shop",
      "opening_hours": "Mo-Su 07:00-22:00",
      "phone": "03-3548-0703",
      "website": "http://www.saint-marc-hd.com/cafe/",
      "addr": ""
    },
    {
      "id": 1482906581,
      "name": "洋麺屋　五右衛門",
      "name_en": "",
      "lat": 35.6824523,
      "lon": 139.7706883,
      "amenity": "restaurant",
      "amenity_label": "レストラン",
      "cuisine": "",
      "opening_hours": "",
      "phone": "",
      "website": "",
      "addr": ""
    },
    {
      "id": 1482906583,
      "name": "エクセルシオール カフェ",
      "name_en": "EXCELSIOR CAFE",
      "lat": 35.682797,
      "lon": 139.770884,
      "amenity": "cafe",
      "amenity_label": "カフェ",
      "cuisine": "coffee_shop",
      "opening_hours": "",
      "phone": "",
      "website": "",
      "addr": ""
    },
    {
      "id": 1483109762,
      "name": "福龍",
      "name_en": "Fukuryu",
      "lat": 35.6817884,
      "lon": 139.7704619,
      "amenity": "restaurant",
      "amenity_label": "レストラン",
      "cuisine": "chinese",
      "opening_hours": "",
      "phone": "",
      "website": "http://www.cany.co.jp",
      "addr": ""
    },
    {
      "id": 1484520147,
      "name": "DAY・NITE大手町店",
      "name_en": "Day Nite",
      "lat": 35.6860982,
      "lon": 139.7669513,
      "amenity": "restaurant",
      "amenity_label": "レストラン",
      "cuisine": "",
      "opening_hours": "",
      "phone": "",
      "website": "https://www.daynite.jp/otemachi/",
      "addr": ""
    },
    {
      "id": 1744076702,
      "name": "稲荷湯",
      "name_en": "Inari-yu",
      "lat": 35.6901388,
      "lon": 139.7663029,
      "amenity": "public_bath",
      "amenity_label": "public_bath",
      "cuisine": "",
      "opening_hours": "Mo-Sa 14:40-22:30",
      "phone": "",
      "website": "",
      "addr": ""
    },
    {
      "id": 1823562767,
      "name": "美々卯 京橋店",
      "name_en": "",
      "lat": 35.6754061,
      "lon": 139.7700376,
      "amenity": "restaurant",
      "amenity_label": "レストラン",
      "cuisine": "japanese",
      "opening_hours": "",
      "phone": "",
      "website": "",
      "addr": ""
    },
    {
      "id": 1823741994,
      "name": "Hidemi Sugino Café",
      "name_en": "",
      "lat": 35.675191,
      "lon": 139.7698904,
      "amenity": "cafe",
      "amenity_label": "カフェ",
      "cuisine": "",
      "opening_hours": "Mo-Su 11:00-22:00",
      "phone": "",
      "website": "",
      "addr": ""
    },
    {
      "id": 1854239328,
      "name": "DevilCraft Kanda",
      "name_en": "DevilCraft Kanda",
      "lat": 35.6895938,
      "lon": 139.7711534,
      "amenity": "restaurant",
      "amenity_label": "レストラン",
      "cuisine": "pizza",
      "opening_hours": "Mo-Fr 17:00-23:00; Sa-Su 15:00-22:00",
      "phone": "+81 3-6265-1779",
      "website": "https://www.devilcraft.jp/kanda",
      "addr": ""
    },
    {
      "id": 1892806949,
      "name": "スターバックス",
      "name_en": "Starbucks",
      "lat": 35.6872108,
      "lon": 139.7753044,
      "amenity": "cafe",
      "amenity_label": "カフェ",
      "cuisine": "coffee_shop",
      "opening_hours": "Mo-Fr 07:00-22:00; Sa-Su,PH 08:00-21:00",
      "phone": "+81 3-5200-1008",
      "website": "https://www.starbucks.co.jp/",
      "addr": ""
    },
    {
      "id": 1896499019,
      "name": "上島珈琲店",
      "name_en": "Ueshima Coffee House",
      "lat": 35.683026,
      "lon": 139.7717219,
      "amenity": "cafe",
      "amenity_label": "カフェ",
      "cuisine": "coffee_shop",
      "opening_hours": "Mo-Fr 07:00-22:00; Sa,Su,PH 10:00-19:00",
      "phone": "",
      "website": "https://www.ueshima-coffee-ten.jp/",
      "addr": ""
    },
    {
      "id": 1898425565,
      "name": "上島珈琲店",
      "name_en": "Ueshima Coffee House",
      "lat": 35.6909687,
      "lon": 139.7571269,
      "amenity": "cafe",
      "amenity_label": "カフェ",
      "cuisine": "coffee_shop",
      "opening_hours": "wd 07:30-21:00",
      "phone": "",
      "website": "",
      "addr": ""
    },
    {
      "id": 1898439984,
      "name": "上島珈琲店",
      "name_en": "Ueshima Coffee House",
      "lat": 35.6827599,
      "lon": 139.7741994,
      "amenity": "cafe",
      "amenity_label": "カフェ",
      "cuisine": "coffee_shop",
      "opening_hours": "Mo-Fr 07:00-22:00; Sa 07:00-21:00; Su,PH 10:00-21:00",
      "phone": "+81 3 5255 7221",
      "website": "https://www.ueshima-coffee-ten.jp/",
      "addr": ""
    },
    {
      "id": 1898471645,
      "name": "上島珈琲店",
      "name_en": "Ueshima Coffee House",
      "lat": 35.6775989,
      "lon": 139.770825,
      "amenity": "cafe",
      "amenity_label": "カフェ",
      "cuisine": "coffee_shop",
      "opening_hours": "",
      "phone": "",
      "website": "https://www.ueshima-coffee-ten.jp/",
      "addr": ""
    },
    {
      "id": 1952088853,
      "name": "スターバックス",
      "name_en": "Starbucks",
      "lat": 35.690927,
      "lon": 139.7574252,
      "amenity": "cafe",
      "amenity_label": "カフェ",
      "cuisine": "coffee_shop",
      "opening_hours": "Mo-Fr 07:00-21:00",
      "phone": "+81 3-3212-3510",
      "website": "https://www.starbucks.co.jp/",
      "addr": ""
    },
    {
      "id": 1952090142,
      "name": "スターバックス",
      "name_en": "Starbucks",
      "lat": 35.6877493,
      "lon": 139.7644969,
      "amenity": "cafe",
      "amenity_label": "カフェ",
      "cuisine": "coffee_shop",
      "opening_hours": "Mo-Fr 08:00-22:00; Sa 09:00-18:00; Su,PH off",
      "phone": "+81-3-3231-2065",
      "website": "https://www.starbucks.co.jp/",
      "addr": ""
    },
    {
      "id": 1952091400,
      "name": "スターバックス",
      "name_en": "Starbucks",
      "lat": 35.6863897,
      "lon": 139.7652318,
      "amenity": "cafe",
      "amenity_label": "カフェ",
      "cuisine": "coffee_shop",
      "opening_hours": "Mo-Fr 07:00-22:00; Sa 07:00-21:00; Su,PH Off",
      "phone": "+81-3-5288-7330",
      "website": "https://www.starbucks.co.jp/",
      "addr": ""
    },
    {
      "id": 1952141270,
      "name": "スターバックス",
      "name_en": "Starbucks",
      "lat": 35.6870888,
      "lon": 139.7656169,
      "amenity": "cafe",
      "amenity_label": "カフェ",
      "cuisine": "coffee_shop",
      "opening_hours": "Mo-Fr 07:00-21:00; Sa 09:00-18:00; Sa,PH off",
      "phone": "+81-3-52048207",
      "website": "https://www.starbucks.co.jp/",
      "addr": ""
    },
    {
      "id": 1957914013,
      "name": "ドトールコーヒーショップ",
      "name_en": "Doutor Coffee Shop",
      "lat": 35.6929081,
      "lon": 139.7708312,
      "amenity": "cafe",
      "amenity_label": "カフェ",
      "cuisine": "coffee_shop",
      "opening_hours": "Mo-Fr 06:30-20:30; Sa,Su,PH 08:00-20:00",
      "phone": "+81 3-5294-4370",
      "website": "https://www.doutor.co.jp/dcs/",
      "addr": ""
    },
    {
      "id": 1957914899,
      "name": "カフェ・ベローチェ",
      "name_en": "CAFE VELOCE",
      "lat": 35.6928023,
      "lon": 139.7704143,
      "amenity": "cafe",
      "amenity_label": "カフェ",
      "cuisine": "coffee_shop",
      "opening_hours": "Mo-Fr 06:45-22:00; Sa,Su,PH 07:00-22:00",
      "phone": "+81 3-5298-2218",
      "website": "https://chatnoir-company.com/chatnoir/html/brand/brand_veloce.html",
      "addr": ""
    },
    {
      "id": 1969396058,
      "name": "タリーズコーヒー",
      "name_en": "Tully's Coffee",
      "lat": 35.6907868,
      "lon": 139.7648236,
      "amenity": "cafe",
      "amenity_label": "カフェ",
      "cuisine": "coffee_shop",
      "opening_hours": "Mo-Fr 07:00-21:00; Sa 07:00-19:00; Su,PH 08:00-19:00",
      "phone": "+81-3-32192711",
      "website": "https://www.starbucks.co.jp/",
      "addr": ""
    },
    {
      "id": 1969434334,
      "name": "スターバックス",
      "name_en": "Starbucks",
      "lat": 35.6888621,
      "lon": 139.7628312,
      "amenity": "cafe",
      "amenity_label": "カフェ",
      "cuisine": "coffee_shop",
      "opening_hours": "Mo-Fr 07:00-22:00; Sa 08:00-19:00; Su,PH off",
      "phone": "+81-3-6213-0650",
      "website": "https://www.starbucks.co.jp/",
      "addr": ""
    },
    {
      "id": 1992017277,
      "name": "PRONTO",
      "name_en": "PRONTO",
      "lat": 35.6749567,
      "lon": 139.7636138,
      "amenity": "cafe",
      "amenity_label": "カフェ",
      "cuisine": "coffee_shop",
      "opening_hours": "",
      "phone": "",
      "website": "",
      "addr": ""
    },
    {
      "id": 1992017282,
      "name": "しゅんさい",
      "name_en": "",
      "lat": 35.6750903,
      "lon": 139.7637726,
      "amenity": "restaurant",
      "amenity_label": "レストラン",
      "cuisine": "",
      "opening_hours": "",
      "phone": "",
      "website": "",
      "addr": ""
    },
    {
      "id": 1992017287,
      "name": "はないち",
      "name_en": "",
      "lat": 35.6749888,
      "lon": 139.7636476,
      "amenity": "pub",
      "amenity_label": "パブ",
      "cuisine": "",
      "opening_hours": "",
      "phone": "",
      "website": "",
      "addr": ""
    },
    {
      "id": 1992017293,
      "name": "カレーショップC&C 有楽町店",
      "name_en": "CURRY SHOP C&C",
      "lat": 35.675254,
      "lon": 139.7639426,
      "amenity": "restaurant",
      "amenity_label": "レストラン",
      "cuisine": "curry",
      "opening_hours": "Mo-Fr 07:30-23:00; Sa-Su 09:00-21:30",
      "phone": "0332409599",
      "website": "",
      "addr": ""
    },
    {
      "id": 1992017307,
      "name": "吉野家",
      "name_en": "Yoshinoya",
      "lat": 35.6749842,
      "lon": 139.7636006,
      "amenity": "fast_food",
      "amenity_label": "ファストフード",
      "cuisine": "beef_bowl",
      "opening_hours": "",
      "phone": "03-6259-1700",
      "website": "",
      "addr": ""
    },
    {
      "id": 1992017312,
      "name": "宝龍",
      "name_en": "Horyu",
      "lat": 35.6750323,
      "lon": 139.7637059,
      "amenity": "restaurant",
      "amenity_label": "レストラン",
      "cuisine": "chinese",
      "opening_hours": "Mo-Fr 11:00-23:50; Sa-Su 11:00-21:00",
      "phone": "+81 3 3214 3994",
      "website": "",
      "addr": ""
    },
    {
      "id": 1992017343,
      "name": "有楽苑",
      "name_en": "",
      "lat": 35.6750148,
      "lon": 139.7636824,
      "amenity": "restaurant",
      "amenity_label": "レストラン",
      "cuisine": "焼肉",
      "opening_hours": "",
      "phone": "",
      "website": "",
      "addr": ""
    },
    {
      "id": 2077116933,
      "name": "ease",
      "name_en": "",
      "lat": 35.68078,
      "lon": 139.763644,
      "amenity": "cafe",
      "amenity_label": "カフェ",
      "cuisine": "",
      "opening_hours": "",
      "phone": "",
      "website": "",
      "addr": ""
    },
    {
      "id": 2130331642,
      "name": "カフェ・ベローチェ",
      "name_en": "CAFE VELOCE",
      "lat": 35.691191,
      "lon": 139.769167,
      "amenity": "cafe",
      "amenity_label": "カフェ",
      "cuisine": "coffee_shop",
      "opening_hours": "Mo-Sa 07:00-22:00; Su,PH 07:00-20:00",
      "phone": "+81 3 3256-1804",
      "website": "https://chatnoir-company.com/chatnoir/html/brand/brand_veloce.html",
      "addr": ""
    },
    {
      "id": 2130331704,
      "name": "CoCo壱番屋",
      "name_en": "CoCo ICHIBANYA",
      "lat": 35.691186,
      "lon": 139.769323,
      "amenity": "restaurant",
      "amenity_label": "レストラン",
      "cuisine": "curry;japanese",
      "opening_hours": "",
      "phone": "",
      "website": "",
      "addr": ""
    },
    {
      "id": 2130337521,
      "name": "なか卯",
      "name_en": "Nakau",
      "lat": 35.687479,
      "lon": 139.770345,
      "amenity": "fast_food",
      "amenity_label": "ファストフード",
      "cuisine": "udon",
      "opening_hours": "",
      "phone": "",
      "website": "",
      "addr": ""
    },
    {
      "id": 2291210666,
      "name": "立ち呑みよもだ",
      "name_en": "",
      "lat": 35.6743513,
      "lon": 139.7620708,
      "amenity": "pub",
      "amenity_label": "パブ",
      "cuisine": "",
      "opening_hours": "",
      "phone": "",
      "website": "",
      "addr": ""
    },
    {
      "id": 2291210702,
      "name": "新日の基",
      "name_en": "Andy's Shin Hinomoto",
      "lat": 35.6742439,
      "lon": 139.7619246,
      "amenity": "pub",
      "amenity_label": "パブ",
      "cuisine": "",
      "opening_hours": "Mo-Sa 17:00-23:30",
      "phone": "03-3214-8021",
      "website": "https://shin-hinomoto.com/",
      "addr": ""
    },
    {
      "id": 2402923147,
      "name": "小諸そば",
      "name_en": "Komoro Soba",
      "lat": 35.6800202,
      "lon": 139.7737654,
      "amenity": "fast_food",
      "amenity_label": "ファストフード",
      "cuisine": "soba",
      "opening_hours": "Mo-Fr 07:00-20:00; Sa 07:15-16:00; Su 10:00-15:00",
      "phone": "+81 3 3273 5470",
      "website": "",
      "addr": ""
    },
    {
      "id": 2441120251,
      "name": "カキ酒場 北海道厚岸",
      "name_en": "Hokkaido Akkeshi",
      "lat": 35.6817067,
      "lon": 139.7724051,
      "amenity": "restaurant",
      "amenity_label": "レストラン",
      "cuisine": "japanese",
      "opening_hours": "",
      "phone": "+81-3-5255-4220",
      "website": "",
      "addr": ""
    },
    {
      "id": 2482480312,
      "name": "Big Pig",
      "name_en": "",
      "lat": 35.6903806,
      "lon": 139.7690869,
      "amenity": "restaurant",
      "amenity_label": "レストラン",
      "cuisine": "savory_pancakes",
      "opening_hours": "",
      "phone": "",
      "website": "",
      "addr": ""
    },
    {
      "id": 2491847519,
      "name": "フレッシュネスバーガー",
      "name_en": "Freshness Burger",
      "lat": 35.6906952,
      "lon": 139.7780997,
      "amenity": "fast_food",
      "amenity_label": "ファストフード",
      "cuisine": "burger",
      "opening_hours": "",
      "phone": "",
      "website": "",
      "addr": ""
    },
    {
      "id": 2492756435,
      "name": "黒てつ屋",
      "name_en": "",
      "lat": 35.6912086,
      "lon": 139.7747419,
      "amenity": "restaurant",
      "amenity_label": "レストラン",
      "cuisine": "",
      "opening_hours": "",
      "phone": "",
      "website": "",
      "addr": ""
    },
    {
      "id": 2497767664,
      "name": "すき家",
      "name_en": "Sukiya",
      "lat": 35.6897089,
      "lon": 139.7758755,
      "amenity": "fast_food",
      "amenity_label": "ファストフード",
      "cuisine": "beef_bowl",
      "opening_hours": "",
      "phone": "",
      "website": "",
      "addr": ""
    },
    {
      "id": 2747117917,
      "name": "すし居酒屋 すすむ",
      "name_en": "Sushi Izakaya Susumu",
      "lat": 35.6928639,
      "lon": 139.7723091,
      "amenity": "pub",
      "amenity_label": "パブ",
      "cuisine": "",
      "opening_hours": "",
      "phone": "",
      "website": "",
      "addr": ""
    },
    {
      "id": 2800403113,
      "name": "与志喜",
      "name_en": "",
      "lat": 35.6875584,
      "lon": 139.7731762,
      "amenity": "restaurant",
      "amenity_label": "レストラン",
      "cuisine": "sushi",
      "opening_hours": "",
      "phone": "",
      "website": "",
      "addr": ""
    },
    {
      "id": 2882602649,
      "name": "SAPPHIRE",
      "name_en": "",
      "lat": 35.6746234,
      "lon": 139.766055,
      "amenity": "restaurant",
      "amenity_label": "レストラン",
      "cuisine": "",
      "opening_hours": "",
      "phone": "",
      "website": "",
      "addr": ""
    },
    {
      "id": 2882602692,
      "name": "天津飯店",
      "name_en": "Tianjin Hanten",
      "lat": 35.6747543,
      "lon": 139.7663304,
      "amenity": "restaurant",
      "amenity_label": "レストラン",
      "cuisine": "chinese",
      "opening_hours": "",
      "phone": "",
      "website": "",
      "addr": ""
    },
    {
      "id": 2882674739,
      "name": "ドトールコーヒーショップ",
      "name_en": "Doutor Coffee Shop",
      "lat": 35.6741754,
      "lon": 139.7671463,
      "amenity": "cafe",
      "amenity_label": "カフェ",
      "cuisine": "coffee_shop",
      "opening_hours": "Mo-Fr 07:00-21:00; Sa,Su,PH 08:00-21:00",
      "phone": "+81 3-5159-0360",
      "website": "https://www.doutor.co.jp/dcs/",
      "addr": ""
    },
    {
      "id": 2928655001,
      "name": "とんかつ繁",
      "name_en": "Tonkatsu Shige",
      "lat": 35.67619,
      "lon": 139.764411,
      "amenity": "restaurant",
      "amenity_label": "レストラン",
      "cuisine": "japanese",
      "opening_hours": "",
      "phone": "",
      "website": "",
      "addr": ""
    },
    {
      "id": 2953726961,
      "name": "美家古すし",
      "name_en": "Miyako Sushi",
      "lat": 35.6812231,
      "lon": 139.7748983,
      "amenity": "restaurant",
      "amenity_label": "レストラン",
      "cuisine": "sushi",
      "opening_hours": "",
      "phone": "+81 3 3271 8788",
      "website": "",
      "addr": ""
    },
    {
      "id": 2955167569,
      "name": "八つ花",
      "name_en": "Yatsubana",
      "lat": 35.6879433,
      "lon": 139.7753393,
      "amenity": "restaurant",
      "amenity_label": "レストラン",
      "cuisine": "japanese",
      "opening_hours": "",
      "phone": "",
      "website": "",
      "addr": ""
    },
    {
      "id": 2958034872,
      "name": "老知ファン",
      "name_en": "Ro Chi Fan",
      "lat": 35.6908096,
      "lon": 139.764343,
      "amenity": "restaurant",
      "amenity_label": "レストラン",
      "cuisine": "chinese",
      "opening_hours": "",
      "phone": "",
      "website": "",
      "addr": ""
    },
    {
      "id": 2995310233,
      "name": "麺や そめいよしの",
      "name_en": "",
      "lat": 35.691418,
      "lon": 139.766878,
      "amenity": "restaurant",
      "amenity_label": "レストラン",
      "cuisine": "noodle",
      "opening_hours": "",
      "phone": "",
      "website": "",
      "addr": ""
    },
    {
      "id": 3289232778,
      "name": "神戸屋ダイニング",
      "name_en": "Kobeya Dining",
      "lat": 35.6762769,
      "lon": 139.7635241,
      "amenity": "cafe",
      "amenity_label": "カフェ",
      "cuisine": "",
      "opening_hours": "Mo-Fr 07:30-21:00; Sa,Su 09:00-20:00",
      "phone": "+81 3-5220-1107",
      "website": "",
      "addr": ""
    },
    {
      "id": 3351513393,
      "name": "つじ半",
      "name_en": "Tsujihan",
      "lat": 35.680759,
      "lon": 139.7715988,
      "amenity": "restaurant",
      "amenity_label": "レストラン",
      "cuisine": "japanese",
      "opening_hours": "",
      "phone": "",
      "website": "",
      "addr": ""
    },
    {
      "id": 3351519493,
      "name": "HUB",
      "name_en": "",
      "lat": 35.6806449,
      "lon": 139.7714518,
      "amenity": "pub",
      "amenity_label": "パブ",
      "cuisine": "fish_and_chips",
      "opening_hours": "",
      "phone": "",
      "website": "",
      "addr": ""
    },
    {
      "id": 3351520893,
      "name": "やきとりまる金",
      "name_en": "",
      "lat": 35.6806145,
      "lon": 139.7714161,
      "amenity": "pub",
      "amenity_label": "パブ",
      "cuisine": "japanese",
      "opening_hours": "",
      "phone": "",
      "website": "",
      "addr": ""
    },
    {
      "id": 3495130798,
      "name": "お好み焼ききじ",
      "name_en": "Kizi",
      "lat": 35.6785637,
      "lon": 139.7650451,
      "amenity": "restaurant",
      "amenity_label": "レストラン",
      "cuisine": "okonomiyaki",
      "opening_hours": "",
      "phone": "",
      "website": "",
      "addr": ""
    },
    {
      "id": 3505153907,
      "name": "山本山 ふじヱ茶房",
      "name_en": "Yamamotoyama Fujie sabo",
      "lat": 35.6816286,
      "lon": 139.7734291,
      "amenity": "cafe",
      "amenity_label": "カフェ",
      "cuisine": "japanese",
      "opening_hours": "10:30-20:00",
      "phone": "+81 3 3271 3273",
      "website": "https://fujie.yamamotoyama.co.jp/",
      "addr": ""
    },
    {
      "id": 3568812893,
      "name": "銀座沼津港",
      "name_en": "",
      "lat": 35.6742561,
      "lon": 139.7686195,
      "amenity": "restaurant",
      "amenity_label": "レストラン",
      "cuisine": "sushi",
      "opening_hours": "11:00-22:30",
      "phone": "",
      "website": "https://www.numazuko-bar.com/",
      "addr": ""
    },
    {
      "id": 3606456593,
      "name": "水蓮月",
      "name_en": "Lotus Moon",
      "lat": 35.6824802,
      "lon": 139.7644454,
      "amenity": "restaurant",
      "amenity_label": "レストラン",
      "cuisine": "chinese",
      "opening_hours": "Mo-Su 11:00-23:00",
      "phone": "+81 3-3211-1660",
      "website": "",
      "addr": ""
    },
    {
      "id": 3608224790,
      "name": "スターバックス",
      "name_en": "Starbucks",
      "lat": 35.6838478,
      "lon": 139.7685382,
      "amenity": "cafe",
      "amenity_label": "カフェ",
      "cuisine": "coffee_shop",
      "opening_hours": "Mo-Fr 07:00-22:00; Sa,Su,PH 07:00-19:00",
      "phone": "+81 3-5224-8075",
      "website": "https://www.starbucks.co.jp/",
      "addr": ""
    },
    {
      "id": 3608230842,
      "name": "スターバックス",
      "name_en": "Starbucks",
      "lat": 35.6829498,
      "lon": 139.7689928,
      "amenity": "cafe",
      "amenity_label": "カフェ",
      "cuisine": "coffee_shop",
      "opening_hours": "Mo-Su 07:00-22:30",
      "phone": "+81 3-5219-6066",
      "website": "https://www.starbucks.co.jp/",
      "addr": ""
    },
    {
      "id": 3608237973,
      "name": "スターバックス",
      "name_en": "Starbucks",
      "lat": 35.6801809,
      "lon": 139.7636129,
      "amenity": "cafe",
      "amenity_label": "カフェ",
      "cuisine": "coffee_shop",
      "opening_hours": "Mo-Fr 07:00-21:00; Sa,Su,PH 08:00-20:00",
      "phone": "+81 3-5288-9050",
      "website": "https://www.starbucks.co.jp/",
      "addr": ""
    },
    {
      "id": 3608248439,
      "name": "スターバックス",
      "name_en": "Starbucks",
      "lat": 35.6775598,
      "lon": 139.7624487,
      "amenity": "cafe",
      "amenity_label": "カフェ",
      "cuisine": "coffee_shop",
      "opening_hours": "Mo-Fr 07:00-22:30; Sa 08:00-21:00; Su,PH 10:00-20:00",
      "phone": "03-3216-3552",
      "website": "https://www.starbucks.co.jp/",
      "addr": ""
    },
    {
      "id": 3608271505,
      "name": "スターバックス",
      "name_en": "Starbucks",
      "lat": 35.6829448,
      "lon": 139.7642107,
      "amenity": "cafe",
      "amenity_label": "カフェ",
      "cuisine": "coffee_shop",
      "opening_hours": "Mo-Su 07:00-22:00",
      "phone": "+81 3-5224-8688",
      "website": "https://www.starbucks.co.jp/",
      "addr": ""
    },
    {
      "id": 3608353015,
      "name": "スターバックス",
      "name_en": "Starbucks",
      "lat": 35.6743376,
      "lon": 139.7636645,
      "amenity": "cafe",
      "amenity_label": "カフェ",
      "cuisine": "coffee_shop",
      "opening_hours": "Mo-Sa 11:00-21:00; Su,PH 10:30-20:30",
      "phone": "+81 3-6738-3888",
      "website": "https://www.starbucks.co.jp/",
      "addr": ""
    },
    {
      "id": 3608362328,
      "name": "スターバックス",
      "name_en": "Starbucks",
      "lat": 35.6753256,
      "lon": 139.7640706,
      "amenity": "cafe",
      "amenity_label": "カフェ",
      "cuisine": "coffee_shop",
      "opening_hours": "Mo-Su 07:00-22:00",
      "phone": "+81 3-6870-6070",
      "website": "https://www.starbucks.co.jp/",
      "addr": ""
    },
    {
      "id": 3608450662,
      "name": "スターバックス",
      "name_en": "Starbucks",
      "lat": 35.6811556,
      "lon": 139.7635159,
      "amenity": "cafe",
      "amenity_label": "カフェ",
      "cuisine": "coffee_shop",
      "opening_hours": "Mo-Su 07:00-22:00",
      "phone": "+81-3-5220-7748",
      "website": "https://store.starbucks.co.jp/detail-371/",
      "addr": ""
    },
    {
      "id": 3608465503,
      "name": "スターバックス",
      "name_en": "Starbucks",
      "lat": 35.6792208,
      "lon": 139.7629111,
      "amenity": "cafe",
      "amenity_label": "カフェ",
      "cuisine": "coffee_shop",
      "opening_hours": "Mo-Fr 07:00-22:00; Sa,Su,PH 08:00-22:00",
      "phone": "+81 3-5220-2082",
      "website": "https://www.starbucks.co.jp/",
      "addr": ""
    },
    {
      "id": 3618747201,
      "name": "なか卯",
      "name_en": "Nakau",
      "lat": 35.6866478,
      "lon": 139.7764567,
      "amenity": "fast_food",
      "amenity_label": "ファストフード",
      "cuisine": "udon",
      "opening_hours": "",
      "phone": "",
      "website": "",
      "addr": ""
    },
    {
      "id": 3626074451,
      "name": "タリーズコーヒー",
      "name_en": "Tully's Coffee",
      "lat": 35.6777815,
      "lon": 139.7670236,
      "amenity": "cafe",
      "amenity_label": "カフェ",
      "cuisine": "coffee_shop",
      "opening_hours": "Mo-Fr 07:30-22:00; Sa 09:00-19:00; Su,PH 09:00-18:00",
      "phone": "+81 3-5208-8423",
      "website": "https://www.tullys.co.jp/",
      "addr": ""
    },
    {
      "id": 3626098418,
      "name": "タリーズコーヒー",
      "name_en": "Tully's Coffee",
      "lat": 35.6853311,
      "lon": 139.7615043,
      "amenity": "cafe",
      "amenity_label": "カフェ",
      "cuisine": "coffee_shop",
      "opening_hours": "Mo-Fr 07:30-20:00; Sa,Su,PH 09:00-19:00",
      "phone": "+81 3-5220-4818",
      "website": "https://www.tullys.co.jp/",
      "addr": ""
    },
    {
      "id": 3626108624,
      "name": "タリーズコーヒー",
      "name_en": "Tully's Coffee",
      "lat": 35.6845613,
      "lon": 139.7646793,
      "amenity": "cafe",
      "amenity_label": "カフェ",
      "cuisine": "coffee_shop",
      "opening_hours": "Mo-Fr 07:30-20:00; Sa 08:00-20:00; Su,PH off",
      "phone": "+81 3-5220-5525",
      "website": "https://www.tullys.co.jp/",
      "addr": ""
    },
    {
      "id": 3626228096,
      "name": "タリーズコーヒー",
      "name_en": "Tully's Coffee",
      "lat": 35.6819096,
      "lon": 139.7688825,
      "amenity": "cafe",
      "amenity_label": "カフェ",
      "cuisine": "coffee_shop",
      "opening_hours": "Mo-We 10:00-20:00; Th,Fr 10:00-21:00; Sa,Su,PH 10:00-20:00",
      "phone": "03-5221-8074",
      "website": "https://www.tullys.co.jp/",
      "addr": ""
    },
    {
      "id": 3626319679,
      "name": "タリーズコーヒー",
      "name_en": "Tully's Coffee",
      "lat": 35.6915019,
      "lon": 139.760491,
      "amenity": "cafe",
      "amenity_label": "カフェ",
      "cuisine": "coffee_shop",
      "opening_hours": "Mo-Fr 07:00-20:00; Sa 09:00-18:00; Su,PH 10:00-17:00",
      "phone": "+81 3-3518-0080",
      "website": "https://www.tullys.co.jp/",
      "addr": ""
    },
    {
      "id": 3626360231,
      "name": "タリーズコーヒー",
      "name_en": "Tully's Coffee",
      "lat": 35.6887477,
      "lon": 139.7622393,
      "amenity": "cafe",
      "amenity_label": "カフェ",
      "cuisine": "coffee_shop",
      "opening_hours": "Mo-Fr 08:00-20:00; Sa-Su,PH off",
      "phone": "+81-3-5220-3832",
      "website": "https://www.tullys.co.jp/",
      "addr": ""
    },
    {
      "id": 3627171118,
      "name": "タリーズコーヒー",
      "name_en": "Tully's Coffee",
      "lat": 35.6871636,
      "lon": 139.7739536,
      "amenity": "cafe",
      "amenity_label": "カフェ",
      "cuisine": "coffee_shop",
      "opening_hours": "Mo-Fr 07:00-22:00; Sa 08:00-20:00; Su,PH 09:00-20:00",
      "phone": "+81 3-6214-3550",
      "website": "https://www.tullys.co.jp/",
      "addr": ""
    },
    {
      "id": 3628018963,
      "name": "タリーズコーヒー",
      "name_en": "Tully's Coffee",
      "lat": 35.6812299,
      "lon": 139.778795,
      "amenity": "cafe",
      "amenity_label": "カフェ",
      "cuisine": "coffee_shop",
      "opening_hours": "Mo-Fr 07:00-19:00; Sa,Su,PH off",
      "phone": "+81 3-3663-1180",
      "website": "https://www.tullys.co.jp/",
      "addr": ""
    },
    {
      "id": 3632291233,
      "name": "ドトールコーヒーショップ",
      "name_en": "Doutor Coffee Shop",
      "lat": 35.691474,
      "lon": 139.766531,
      "amenity": "cafe",
      "amenity_label": "カフェ",
      "cuisine": "coffee_shop",
      "opening_hours": "Mo-Fr 07:15-19:30; Sa 08:00-13:00; Su,PH off",
      "phone": "+81 3-3233-2640",
      "website": "https://www.doutor.co.jp/dcs/",
      "addr": ""
    },
    {
      "id": 3632295245,
      "name": "ドトールコーヒーショップ",
      "name_en": "Doutor Coffee Shop",
      "lat": 35.692416,
      "lon": 139.7762996,
      "amenity": "cafe",
      "amenity_label": "カフェ",
      "cuisine": "coffee_shop",
      "opening_hours": "Mo-Fr 07:00-19:00; Sa 08:00-16:00; Su,PH off",
      "phone": "+81 3-3865-4154",
      "website": "https://www.doutor.co.jp/dcs/",
      "addr": ""
    },
    {
      "id": 3632323144,
      "name": "ドトールコーヒーショップ",
      "name_en": "Doutor Coffee Shop",
      "lat": 35.6756015,
      "lon": 139.7641714,
      "amenity": "cafe",
      "amenity_label": "カフェ",
      "cuisine": "coffee_shop",
      "opening_hours": "Mo-Sa 07:00-22:00; Su,PH 08:00-21:00",
      "phone": "+81 3-3214-6882",
      "website": "https://www.doutor.co.jp/dcs/",
      "addr": ""
    },
    {
      "id": 3632328673,
      "name": "ドトールコーヒーショップ",
      "name_en": "Doutor Coffee Shop",
      "lat": 35.6854635,
      "lon": 139.7638018,
      "amenity": "cafe",
      "amenity_label": "カフェ",
      "cuisine": "coffee_shop",
      "opening_hours": "Mo-Fr 06:45-20:30; Sa,Su,PH off",
      "phone": "+81 3-3217-0830",
      "website": "https://www.doutor.co.jp/dcs/",
      "addr": ""
    },
    {
      "id": 3632429799,
      "name": "ドトールコーヒーショップ",
      "name_en": "Doutor Coffee Shop",
      "lat": 35.6850603,
      "lon": 139.7675903,
      "amenity": "cafe",
      "amenity_label": "カフェ",
      "cuisine": "coffee_shop",
      "opening_hours": "Mo-Fr 07:00-21:00; Sa 08:00-14:30",
      "phone": "+81 3-5204-2213",
      "website": "https://www.doutor.co.jp/dcs/",
      "addr": ""
    },
    {
      "id": 3633684753,
      "name": "ドトールコーヒーショップ",
      "name_en": "Doutor Coffee Shop",
      "lat": 35.6806696,
      "lon": 139.7680959,
      "amenity": "cafe",
      "amenity_label": "カフェ",
      "cuisine": "coffee_shop",
      "opening_hours": "Mo-Fr 06:30-22:30; Sa,Su,PH 06:30-22:00",
      "phone": "+81 3-3287-3009",
      "website": "https://www.doutor.co.jp/dcs/",
      "addr": ""
    },
    {
      "id": 3633690713,
      "name": "ドトールコーヒーショップ",
      "name_en": "Doutor Coffee Shop",
      "lat": 35.674688,
      "lon": 139.7614481,
      "amenity": "cafe",
      "amenity_label": "カフェ",
      "cuisine": "coffee_shop",
      "opening_hours": "Mo-Fr 07:00-21:00; Sa 08:00-19:00; Su,PH 10:00-19:00",
      "phone": "+81 3-3217-2521",
      "website": "https://www.doutor.co.jp/dcs/",
      "addr": ""
    },
    {
      "id": 3633695958,
      "name": "ドトールコーヒーショップ",
      "name_en": "Doutor Coffee Shop",
      "lat": 35.6883603,
      "lon": 139.7657436,
      "amenity": "cafe",
      "amenity_label": "カフェ",
      "cuisine": "coffee_shop",
      "opening_hours": "Mo-Fr 07:00-21:00; Sa 08:00-17:00; Su,PH off",
      "phone": "+81 3-3281-3330",
      "website": "https://www.doutor.co.jp/dcs/",
      "addr": ""
    },
    {
      "id": 3633732967,
      "name": "ドトールコーヒーショップ",
      "name_en": "Doutor Coffee Shop",
      "lat": 35.691814,
      "lon": 139.7719857,
      "amenity": "cafe",
      "amenity_label": "カフェ",
      "cuisine": "coffee_shop",
      "opening_hours": "Mo-Fr 06:30-21:00; Sa 08:00-20:00; Su,PH 08:00-19:00",
      "phone": "+81 3 3258-3050",
      "website": "https://www.doutor.co.jp/dcs/",
      "addr": ""
    },
    {
      "id": 3633739288,
      "name": "ドトールコーヒーショップ",
      "name_en": "Doutor Coffee Shop",
      "lat": 35.6813896,
      "lon": 139.7778444,
      "amenity": "cafe",
      "amenity_label": "カフェ",
      "cuisine": "coffee_shop",
      "opening_hours": "Mo-Fr 07:15-19:00; Sa,Su,PH off",
      "phone": "+81 3-3661-6456",
      "website": "https://www.doutor.co.jp/dcs/",
      "addr": ""
    },
    {
      "id": 3633776659,
      "name": "ドトールコーヒーショップ",
      "name_en": "Doutor Coffee Shop",
      "lat": 35.6757858,
      "lon": 139.7778683,
      "amenity": "cafe",
      "amenity_label": "カフェ",
      "cuisine": "coffee_shop",
      "opening_hours": "Mo-Fr 07:00-19:30; Sa 07:30-16:00; Su,PH off",
      "phone": "+81 3-3553-2375",
      "website": "https://www.doutor.co.jp/dcs/",
      "addr": ""
    },
    {
      "id": 3633788167,
      "name": "ドトールコーヒーショップ",
      "name_en": "Doutor Coffee Shop",
      "lat": 35.68755,
      "lon": 139.7756995,
      "amenity": "cafe",
      "amenity_label": "カフェ",
      "cuisine": "coffee_shop",
      "opening_hours": "Mo-Fr 07:00-19:30; Sa 10:00-18:00; Su,PH off",
      "phone": "+81 3-3241-2868",
      "website": "https://www.doutor.co.jp/dcs/",
      "addr": ""
    },
    {
      "id": 3633974836,
      "name": "ドトールコーヒーショップ",
      "name_en": "Doutor Coffee Shop",
      "lat": 35.6817202,
      "lon": 139.7723735,
      "amenity": "cafe",
      "amenity_label": "カフェ",
      "cuisine": "coffee_shop",
      "opening_hours": "Mo-Fr 06:45-21:00; Sa 08:00-20:00; PH 10:00-18:00",
      "phone": "03-3273-5533",
      "website": "http://sasp.mapion.co.jp/b/doutor/info/01010776/?shopmastergyokna=1100",
      "addr": ""
    },
    {
      "id": 3634830466,
      "name": "ドトールコーヒーショップ",
      "name_en": "Doutor Coffee Shop",
      "lat": 35.6898606,
      "lon": 139.7730438,
      "amenity": "cafe",
      "amenity_label": "カフェ",
      "cuisine": "coffee_shop",
      "opening_hours": "Mo-Fr 07:00-19:00; Sa,Su,PH off",
      "phone": "+81 3 3271-3136",
      "website": "https://www.doutor.co.jp/dcs/",
      "addr": ""
    },
    {
      "id": 3634838698,
      "name": "ドトールコーヒーショップ",
      "name_en": "Doutor Coffee Shop",
      "lat": 35.6857434,
      "lon": 139.7749691,
      "amenity": "cafe",
      "amenity_label": "カフェ",
      "cuisine": "coffee_shop",
      "opening_hours": "Mo-Fr 07:00-19:30; Sa 08:00-18:30; Su,PH 08:00-18:00",
      "phone": "+81 3-3241-0675",
      "website": "https://www.doutor.co.jp/dcs/",
      "addr": ""
    },
    {
      "id": 3634890436,
      "name": "ドトールコーヒーショップ",
      "name_en": "Doutor Coffee Shop",
      "lat": 35.6894449,
      "lon": 139.7710329,
      "amenity": "cafe",
      "amenity_label": "カフェ",
      "cuisine": "coffee_shop",
      "opening_hours": "Mo-Fr 06:30-21:00; Sa 08:00-20:00; Su,PH 08:00-19:00",
      "phone": "+81 3 3278-4201",
      "website": "https://www.doutor.co.jp/dcs/",
      "addr": ""
    },
    {
      "id": 3658490684,
      "name": "サンマルクカフェ",
      "name_en": "Saint Marc Cafe",
      "lat": 35.6909409,
      "lon": 139.7573251,
      "amenity": "cafe",
      "amenity_label": "カフェ",
      "cuisine": "coffee_shop",
      "opening_hours": "Mo-Su 07:00-22:00; Sa 07:00-19:00",
      "phone": "+81 3-5224-3097",
      "website": "http://www.saint-marc-hd.com/cafe/",
      "addr": ""
    },
    {
      "id": 3658879192,
      "name": "サンマルクカフェ",
      "name_en": "Saint Marc Cafe",
      "lat": 35.6912038,
      "lon": 139.7702381,
      "amenity": "cafe",
      "amenity_label": "カフェ",
      "cuisine": "coffee_shop",
      "opening_hours": "Mo-Fr 07:00-22:00; Sa,Su,PH 08:00-19:00",
      "phone": "+81 3 5207-7309",
      "website": "http://www.saint-marc-hd.com/cafe/",
      "addr": ""
    },
    {
      "id": 3658894838,
      "name": "サンマルクカフェ",
      "name_en": "Saint Marc Cafe",
      "lat": 35.6915345,
      "lon": 139.7715414,
      "amenity": "cafe",
      "amenity_label": "カフェ",
      "cuisine": "coffee_shop",
      "opening_hours": "Mo-Fr 07:00-22:00; Sa,Su,PH 08:00-19:00",
      "phone": "+81 3 5294-0309",
      "website": "http://www.saint-marc-hd.com/cafe/",
      "addr": ""
    },
    {
      "id": 3658925991,
      "name": "サンマルクカフェ",
      "name_en": "Saint Marc Cafe",
      "lat": 35.6777903,
      "lon": 139.7630482,
      "amenity": "cafe",
      "amenity_label": "カフェ",
      "cuisine": "coffee_shop",
      "opening_hours": "Mo-Su 07:00-22:00",
      "phone": "+81 3-5224-3309",
      "website": "http://www.saint-marc-hd.com/cafe/",
      "addr": ""
    },
    {
      "id": 3661036740,
      "name": "サンマルクカフェ",
      "name_en": "Saint Marc Cafe",
      "lat": 35.6907478,
      "lon": 139.7781691,
      "amenity": "cafe",
      "amenity_label": "カフェ",
      "cuisine": "coffee_shop",
      "opening_hours": "Mo-Su 07:00-22:00",
      "phone": "+81 3-5645-3092",
      "website": "http://www.saint-marc-hd.com/cafe/",
      "addr": ""
    },
    {
      "id": 3667951848,
      "name": "カフェ・ベローチェ",
      "name_en": "CAFE VELOCE",
      "lat": 35.6908781,
      "lon": 139.7725308,
      "amenity": "cafe",
      "amenity_label": "カフェ",
      "cuisine": "coffee_shop",
      "opening_hours": "Mo-Fr 06:45-22:00; Sa,Su,PH 07:00-22:00",
      "phone": "+81 3 5209-6434",
      "website": "https://chatnoir-company.com/chatnoir/html/brand/brand_veloce.html",
      "addr": ""
    },
    {
      "id": 3669632229,
      "name": "カフェ・ベローチェ",
      "name_en": "CAFE VELOCE",
      "lat": 35.6786611,
      "lon": 139.7780196,
      "amenity": "cafe",
      "amenity_label": "カフェ",
      "cuisine": "coffee_shop",
      "opening_hours": "Mo-Sa 07:00-22:00; Su,PH off",
      "phone": "+81 3-5695-0258",
      "website": "https://chatnoir-company.com/chatnoir/html/brand/brand_veloce.html",
      "addr": ""
    },
    {
      "id": 3669696056,
      "name": "カフェ・ベローチェ",
      "name_en": "CAFE VELOCE",
      "lat": 35.6905665,
      "lon": 139.7642662,
      "amenity": "cafe",
      "amenity_label": "カフェ",
      "cuisine": "coffee_shop",
      "opening_hours": "Mo-Fr 07:00-22:00; Sa 07:00-21:00; Su,PH 07:00-20:00",
      "phone": "+81 3-5217-3118",
      "website": "https://chatnoir-company.com/chatnoir/html/brand/brand_veloce.html",
      "addr": ""
    },
    {
      "id": 3669715405,
      "name": "カフェ・ベローチェ",
      "name_en": "CAFE VELOCE",
      "lat": 35.6922274,
      "lon": 139.7656344,
      "amenity": "cafe",
      "amenity_label": "カフェ",
      "cuisine": "coffee_shop",
      "opening_hours": "Mo-Fr 07:00-22:00; Sa,Su,PH 07:00-20:00",
      "phone": "+81 3-5283-3480",
      "website": "https://chatnoir-company.com/chatnoir/html/brand/brand_veloce.html",
      "addr": ""
    },
    {
      "id": 3679993702,
      "name": "カフェ・ベローチェ",
      "name_en": "CAFE VELOCE",
      "lat": 35.68282,
      "lon": 139.7768027,
      "amenity": "cafe",
      "amenity_label": "カフェ",
      "cuisine": "coffee_shop",
      "opening_hours": "Mo-Fr 07:00-23:00; Sa 07:00-22:00; Su,PH 07:00-21:00",
      "phone": "+81 3 3527 9623",
      "website": "https://chatnoir-company.com/chatnoir/ShopSearch?shop_code=418",
      "addr": ""
    },
    {
      "id": 3680341982,
      "name": "カフェ・ベローチェ",
      "name_en": "CAFE VELOCE",
      "lat": 35.68075,
      "lon": 139.7747438,
      "amenity": "cafe",
      "amenity_label": "カフェ",
      "cuisine": "coffee_shop",
      "opening_hours": "Mo-Fr 07:00-21:00; Sa-Su 07:00-20:00; PH 07:00-20:00",
      "phone": "+81 3 3275 0573",
      "website": "https://chatnoir-company.com/chatnoir/ShopSearch?shop_code=203&from=map_page&zoom=17&lat=35.68078800000001&lng=139.77475000000004",
      "addr": ""
    },
    {
      "id": 3789923359,
      "name": "すき家",
      "name_en": "Sukiya",
      "lat": 35.679042,
      "lon": 139.7713087,
      "amenity": "fast_food",
      "amenity_label": "ファストフード",
      "cuisine": "beef_bowl",
      "opening_hours": "",
      "phone": "",
      "website": "",
      "addr": ""
    },
    {
      "id": 3790005987,
      "name": "喜多方ラーメン坂内",
      "name_en": "Bannai",
      "lat": 35.6761575,
      "lon": 139.772029,
      "amenity": "restaurant",
      "amenity_label": "レストラン",
      "cuisine": "ramen",
      "opening_hours": "",
      "phone": "",
      "website": "https://ban-nai.com/",
      "addr": ""
    },
    {
      "id": 3790005996,
      "name": "華龍飯店",
      "name_en": "",
      "lat": 35.6775166,
      "lon": 139.7728642,
      "amenity": "restaurant",
      "amenity_label": "レストラン",
      "cuisine": "chinese",
      "opening_hours": "",
      "phone": "",
      "website": "",
      "addr": ""
    },
    {
      "id": 3790005997,
      "name": "西安刀削麺",
      "name_en": "Xian Toshomen",
      "lat": 35.6760591,
      "lon": 139.7719678,
      "amenity": "restaurant",
      "amenity_label": "レストラン",
      "cuisine": "chinese",
      "opening_hours": "",
      "phone": "",
      "website": "",
      "addr": ""
    },
    {
      "id": 3818211699,
      "name": "うみやまはたけ",
      "name_en": "",
      "lat": 35.6894389,
      "lon": 139.7775252,
      "amenity": "restaurant",
      "amenity_label": "レストラン",
      "cuisine": "japanese",
      "opening_hours": "11:30-14:30,17:00-23:00",
      "phone": "",
      "website": "",
      "addr": ""
    },
    {
      "id": 3830488157,
      "name": "PRONTO",
      "name_en": "PRONTO",
      "lat": 35.6912763,
      "lon": 139.7711972,
      "amenity": "cafe",
      "amenity_label": "カフェ",
      "cuisine": "coffee_shop",
      "opening_hours": "",
      "phone": "",
      "website": "",
      "addr": ""
    },
    {
      "id": 3861632385,
      "name": "Papa Milano Trattoria",
      "name_en": "",
      "lat": 35.6837535,
      "lon": 139.7688626,
      "amenity": "restaurant",
      "amenity_label": "レストラン",
      "cuisine": "italian",
      "opening_hours": "",
      "phone": "",
      "website": "",
      "addr": ""
    },
    {
      "id": 3949941427,
      "name": "日比谷パレス",
      "name_en": "Hibiya Palace",
      "lat": 35.6742168,
      "lon": 139.7547375,
      "amenity": "restaurant",
      "amenity_label": "レストラン",
      "cuisine": "",
      "opening_hours": "",
      "phone": "",
      "website": "",
      "addr": ""
    },
    {
      "id": 3949941428,
      "name": "HIBIYA SAROH",
      "name_en": "Hibiya saroh",
      "lat": 35.6755018,
      "lon": 139.7576949,
      "amenity": "restaurant",
      "amenity_label": "レストラン",
      "cuisine": "",
      "opening_hours": "",
      "phone": "",
      "website": "",
      "addr": ""
    },
    {
      "id": 4032113736,
      "name": "iBrew",
      "name_en": "",
      "lat": 35.6756161,
      "lon": 139.7673226,
      "amenity": "pub",
      "amenity_label": "パブ",
      "cuisine": "",
      "opening_hours": "",
      "phone": "",
      "website": "",
      "addr": ""
    },
    {
      "id": 4032288317,
      "name": "神田笹鮨",
      "name_en": "Kanda Sasa Sushi",
      "lat": 35.6926428,
      "lon": 139.7724222,
      "amenity": "restaurant",
      "amenity_label": "レストラン",
      "cuisine": "sushi",
      "opening_hours": "",
      "phone": "",
      "website": "",
      "addr": ""
    },
    {
      "id": 4032288525,
      "name": "浅野屋本店",
      "name_en": "Asanoya Honten",
      "lat": 35.6904674,
      "lon": 139.768235,
      "amenity": "restaurant",
      "amenity_label": "レストラン",
      "cuisine": "noodle",
      "opening_hours": "",
      "phone": "",
      "website": "",
      "addr": ""
    },
    {
      "id": 4079568062,
      "name": "BAN蔵",
      "name_en": "",
      "lat": 35.6928272,
      "lon": 139.7716958,
      "amenity": "restaurant",
      "amenity_label": "レストラン",
      "cuisine": "mexican",
      "opening_hours": "",
      "phone": "",
      "website": "",
      "addr": ""
    },
    {
      "id": 4079568065,
      "name": "は満寿司",
      "name_en": "",
      "lat": 35.6929862,
      "lon": 139.7717508,
      "amenity": "restaurant",
      "amenity_label": "レストラン",
      "cuisine": "sushi",
      "opening_hours": "",
      "phone": "",
      "website": "",
      "addr": ""
    },
    {
      "id": 4079568066,
      "name": "まぜそば MAZERU",
      "name_en": "",
      "lat": 35.6924579,
      "lon": 139.7715792,
      "amenity": "fast_food",
      "amenity_label": "ファストフード",
      "cuisine": "noodle;ramen",
      "opening_hours": "",
      "phone": "",
      "website": "",
      "addr": ""
    },
    {
      "id": 4079568068,
      "name": "サモサ",
      "name_en": "",
      "lat": 35.6925538,
      "lon": 139.7716073,
      "amenity": "restaurant",
      "amenity_label": "レストラン",
      "cuisine": "indian",
      "opening_hours": "",
      "phone": "",
      "website": "",
      "addr": ""
    },
    {
      "id": 4079568071,
      "name": "メコン",
      "name_en": "",
      "lat": 35.6925298,
      "lon": 139.7716046,
      "amenity": "restaurant",
      "amenity_label": "レストラン",
      "cuisine": "vietnamese",
      "opening_hours": "",
      "phone": "",
      "website": "",
      "addr": ""
    },
    {
      "id": 4079568072,
      "name": "万ちゃん",
      "name_en": "",
      "lat": 35.6929209,
      "lon": 139.7717227,
      "amenity": "pub",
      "amenity_label": "パブ",
      "cuisine": "",
      "opening_hours": "",
      "phone": "",
      "website": "",
      "addr": ""
    },
    {
      "id": 4079568073,
      "name": "串カツ甲子園",
      "name_en": "",
      "lat": 35.6924928,
      "lon": 139.7715832,
      "amenity": "restaurant",
      "amenity_label": "レストラン",
      "cuisine": "japanese",
      "opening_hours": "",
      "phone": "",
      "website": "",
      "addr": ""
    },
    {
      "id": 4079568074,
      "name": "大松",
      "name_en": "",
      "lat": 35.6924198,
      "lon": 139.7715591,
      "amenity": "pub",
      "amenity_label": "パブ",
      "cuisine": "",
      "opening_hours": "",
      "phone": "",
      "website": "",
      "addr": ""
    },
    {
      "id": 4079568075,
      "name": "東京牧場",
      "name_en": "",
      "lat": 35.6927738,
      "lon": 139.7716704,
      "amenity": "restaurant",
      "amenity_label": "レストラン",
      "cuisine": "barbecue",
      "opening_hours": "",
      "phone": "",
      "website": "",
      "addr": ""
    },
    {
      "id": 4079568076,
      "name": "樽や",
      "name_en": "",
      "lat": 35.692869,
      "lon": 139.7717103,
      "amenity": "restaurant",
      "amenity_label": "レストラン",
      "cuisine": "",
      "opening_hours": "",
      "phone": "",
      "website": "",
      "addr": ""
    },
    {
      "id": 4079568080,
      "name": "蛇の目鮨本店",
      "name_en": "",
      "lat": 35.6927117,
      "lon": 139.7716516,
      "amenity": "restaurant",
      "amenity_label": "レストラン",
      "cuisine": "sushi",
      "opening_hours": "",
      "phone": "",
      "website": "",
      "addr": ""
    },
    {
      "id": 4079568081,
      "name": "餃子の王将",
      "name_en": "Gyoza no Ohsho",
      "lat": 35.6929557,
      "lon": 139.7717428,
      "amenity": "restaurant",
      "amenity_label": "レストラン",
      "cuisine": "chinese;gyoza",
      "opening_hours": "",
      "phone": "",
      "website": "",
      "addr": ""
    },
    {
      "id": 4121017112,
      "name": "PRONTO",
      "name_en": "PRONTO",
      "lat": 35.6890217,
      "lon": 139.768933,
      "amenity": "cafe",
      "amenity_label": "カフェ",
      "cuisine": "coffee_shop",
      "opening_hours": "",
      "phone": "",
      "website": "",
      "addr": ""
    },
    {
      "id": 4142370953,
      "name": "そばよし",
      "name_en": "Soba Yoshi",
      "lat": 35.6853502,
      "lon": 139.7765697,
      "amenity": "fast_food",
      "amenity_label": "ファストフード",
      "cuisine": "noodle;soba;udon;ramen",
      "opening_hours": "",
      "phone": "",
      "website": "",
      "addr": ""
    },
    {
      "id": 4149983889,
      "name": "六厘舎",
      "name_en": "Rokurinsha Tokyo Ramen Street Store",
      "lat": 35.6800361,
      "lon": 139.7678472,
      "amenity": "restaurant",
      "amenity_label": "レストラン",
      "cuisine": "ramen",
      "opening_hours": "",
      "phone": "",
      "website": "https://rokurinsha.com/",
      "addr": ""
    },
    {
      "id": 4160585862,
      "name": "おいしいおうどん つるとんたん",
      "name_en": "",
      "lat": 35.6785322,
      "lon": 139.7650373,
      "amenity": "restaurant",
      "amenity_label": "レストラン",
      "cuisine": "noodle",
      "opening_hours": "",
      "phone": "",
      "website": "",
      "addr": ""
    },
    {
      "id": 4160585863,
      "name": "どいちゃん",
      "name_en": "",
      "lat": 35.6783618,
      "lon": 139.7649557,
      "amenity": "pub",
      "amenity_label": "パブ",
      "cuisine": "",
      "opening_hours": "",
      "phone": "",
      "website": "",
      "addr": ""
    },
    {
      "id": 4160585865,
      "name": "ろくまる 五元豚",
      "name_en": "",
      "lat": 35.6782445,
      "lon": 139.7646884,
      "amenity": "restaurant",
      "amenity_label": "レストラン",
      "cuisine": "",
      "opening_hours": "",
      "phone": "",
      "website": "",
      "addr": ""
    },
    {
      "id": 4160585866,
      "name": "インデアンカレー",
      "name_en": "",
      "lat": 35.6787971,
      "lon": 139.7650522,
      "amenity": "restaurant",
      "amenity_label": "レストラン",
      "cuisine": "",
      "opening_hours": "",
      "phone": "",
      "website": "",
      "addr": ""
    },
    {
      "id": 4160585868,
      "name": "シチリアン テラス ボーノ",
      "name_en": "",
      "lat": 35.6781909,
      "lon": 139.7648946,
      "amenity": "restaurant",
      "amenity_label": "レストラン",
      "cuisine": "italian",
      "opening_hours": "",
      "phone": "",
      "website": "",
      "addr": ""
    },
    {
      "id": 4160585869,
      "name": "トナリ",
      "name_en": "",
      "lat": 35.6786978,
      "lon": 139.7650133,
      "amenity": "restaurant",
      "amenity_label": "レストラン",
      "cuisine": "noodle",
      "opening_hours": "",
      "phone": "",
      "website": "",
      "addr": ""
    },
    {
      "id": 4160585871,
      "name": "バル デ エスパーニャ ムイ",
      "name_en": "BAR de ESPANA MUY",
      "lat": 35.6783019,
      "lon": 139.7649126,
      "amenity": "restaurant",
      "amenity_label": "レストラン",
      "cuisine": "spanish",
      "opening_hours": "",
      "phone": "03-5224-6161",
      "website": "",
      "addr": ""
    },
    {
      "id": 4160585872,
      "name": "ムーチョ モダン メキシカーノ",
      "name_en": "",
      "lat": 35.6782084,
      "lon": 139.7646968,
      "amenity": "restaurant",
      "amenity_label": "レストラン",
      "cuisine": "mexican",
      "opening_hours": "",
      "phone": "",
      "website": "",
      "addr": ""
    },
    {
      "id": 4160585873,
      "name": "レゾナンス",
      "name_en": "",
      "lat": 35.6789349,
      "lon": 139.7651308,
      "amenity": "restaurant",
      "amenity_label": "レストラン",
      "cuisine": "french",
      "opening_hours": "",
      "phone": "",
      "website": "",
      "addr": ""
    },
    {
      "id": 4160585874,
      "name": "串あげもの 旬s",
      "name_en": "",
      "lat": 35.6787504,
      "lon": 139.7650331,
      "amenity": "restaurant",
      "amenity_label": "レストラン",
      "cuisine": "",
      "opening_hours": "",
      "phone": "",
      "website": "",
      "addr": ""
    },
    {
      "id": 4160585875,
      "name": "天ぷら 菊亭",
      "name_en": "",
      "lat": 35.6787197,
      "lon": 139.765102,
      "amenity": "restaurant",
      "amenity_label": "レストラン",
      "cuisine": "japanese",
      "opening_hours": "",
      "phone": "",
      "website": "",
      "addr": ""
    },
    {
      "id": 4160585876,
      "name": "宮崎地鶏炭火焼 車",
      "name_en": "",
      "lat": 35.6786033,
      "lon": 139.7650606,
      "amenity": "restaurant",
      "amenity_label": "レストラン",
      "cuisine": "japanese",
      "opening_hours": "",
      "phone": "",
      "website": "",
      "addr": ""
    },
    {
      "id": 4160585877,
      "name": "焼肉 たむら",
      "name_en": "",
      "lat": 35.6786705,
      "lon": 139.7650816,
      "amenity": "restaurant",
      "amenity_label": "レストラン",
      "cuisine": "barbecue",
      "opening_hours": "",
      "phone": "",
      "website": "",
      "addr": ""
    },
    {
      "id": 4160585878,
      "name": "葡萄の森 互談や",
      "name_en": "",
      "lat": 35.678337,
      "lon": 139.7649054,
      "amenity": "restaurant",
      "amenity_label": "レストラン",
      "cuisine": "",
      "opening_hours": "",
      "phone": "",
      "website": "",
      "addr": ""
    },
    {
      "id": 4160585879,
      "name": "鮨一輝",
      "name_en": "",
      "lat": 35.6787913,
      "lon": 139.7651242,
      "amenity": "restaurant",
      "amenity_label": "レストラン",
      "cuisine": "sushi",
      "opening_hours": "",
      "phone": "",
      "website": "",
      "addr": ""
    },
    {
      "id": 4160585880,
      "name": "龍福小龍堂",
      "name_en": "",
      "lat": 35.6782708,
      "lon": 139.7649072,
      "amenity": "restaurant",
      "amenity_label": "レストラン",
      "cuisine": "chinese",
      "opening_hours": "",
      "phone": "",
      "website": "",
      "addr": ""
    },
    {
      "id": 4167718989,
      "name": "丸龜製麵",
      "name_en": "Marukame Udon",
      "lat": 35.6766585,
      "lon": 139.7607777,
      "amenity": "restaurant",
      "amenity_label": "レストラン",
      "cuisine": "",
      "opening_hours": "",
      "phone": "+81 3 3286 6330",
      "website": "",
      "addr": ""
    },
    {
      "id": 4266266136,
      "name": "宇奈とと",
      "name_en": "Unatoto",
      "lat": 35.6790361,
      "lon": 139.7773425,
      "amenity": "restaurant",
      "amenity_label": "レストラン",
      "cuisine": "japanese",
      "opening_hours": "",
      "phone": "+81 3-5643-6969",
      "website": "",
      "addr": ""
    },
    {
      "id": 4266266137,
      "name": "名代 宇奈とと",
      "name_en": "",
      "lat": 35.674742,
      "lon": 139.7760614,
      "amenity": "restaurant",
      "amenity_label": "レストラン",
      "cuisine": "japanese",
      "opening_hours": "11:00-22:00; Sa,Su,PH off",
      "phone": "+81 3-5117-6969",
      "website": "",
      "addr": ""
    },
    {
      "id": 4266283812,
      "name": "宇奈とと神田店",
      "name_en": "Unatoto",
      "lat": 35.6911751,
      "lon": 139.7692042,
      "amenity": "restaurant",
      "amenity_label": "レストラン",
      "cuisine": "japanese",
      "opening_hours": "Mo-Fr 11:00-23:30;Sa 11:00-21:00;Su off",
      "phone": "+81 3 3526-6969",
      "website": "unatoto.com",
      "addr": ""
    },
    {
      "id": 4271130089,
      "name": "Roar Coffee",
      "name_en": "",
      "lat": 35.6760885,
      "lon": 139.7759195,
      "amenity": "cafe",
      "amenity_label": "カフェ",
      "cuisine": "",
      "opening_hours": "Mo-Fr 08:00-23:00",
      "phone": "",
      "website": "https://www.roar-coffee.com/",
      "addr": ""
    },
    {
      "id": 4286885493,
      "name": "カフェ・ベローチェ",
      "name_en": "CAFE VELOCE",
      "lat": 35.6816741,
      "lon": 139.7717142,
      "amenity": "cafe",
      "amenity_label": "カフェ",
      "cuisine": "coffee_shop",
      "opening_hours": "Mo-Fr 07:00-23:00; Sa,Su,PH 07:00-21:00",
      "phone": "+81 3 3242 5861",
      "website": "https://chatnoir-company.com/chatnoir/ShopSearch?shop_code=802",
      "addr": ""
    },
    {
      "id": 4286886091,
      "name": "扇寿司",
      "name_en": "",
      "lat": 35.6818361,
      "lon": 139.771566,
      "amenity": "restaurant",
      "amenity_label": "レストラン",
      "cuisine": "",
      "opening_hours": "",
      "phone": "",
      "website": "",
      "addr": ""
    },
    {
      "id": 4306473292,
      "name": "나고야 빈쵸",
      "name_en": "Nagoya Bincho",
      "lat": 35.6742606,
      "lon": 139.7654016,
      "amenity": "restaurant",
      "amenity_label": "レストラン",
      "cuisine": "",
      "opening_hours": "",
      "phone": "",
      "website": "",
      "addr": ""
    },
    {
      "id": 4330517193,
      "name": "Looking Good ",
      "name_en": "",
      "lat": 35.6887393,
      "lon": 139.7649185,
      "amenity": "fast_food",
      "amenity_label": "ファストフード",
      "cuisine": "",
      "opening_hours": "Mo-Fr 07:30-22:00",
      "phone": "",
      "website": "http://www.lookinggood.jp ",
      "addr": ""
    },
    {
      "id": 4342034190,
      "name": "Sapporo Dominika Ginza: Soup Curry",
      "name_en": "",
      "lat": 35.6755046,
      "lon": 139.7679007,
      "amenity": "restaurant",
      "amenity_label": "レストラン",
      "cuisine": "",
      "opening_hours": "",
      "phone": "",
      "website": "",
      "addr": ""
    },
    {
      "id": 4366525394,
      "name": "金子半之助",
      "name_en": "Kaneko Hannosuke",
      "lat": 35.6854263,
      "lon": 139.775373,
      "amenity": "restaurant",
      "amenity_label": "レストラン",
      "cuisine": "",
      "opening_hours": "",
      "phone": "",
      "website": "",
      "addr": ""
    },
    {
      "id": 4374453490,
      "name": "すし家一柳",
      "name_en": "Ichiryu Sushi",
      "lat": 35.6748241,
      "lon": 139.7669762,
      "amenity": "restaurant",
      "amenity_label": "レストラン",
      "cuisine": "sushi",
      "opening_hours": "",
      "phone": "",
      "website": "",
      "addr": ""
    },
    {
      "id": 4450068890,
      "name": "Meiji 100% Chocolate Cafe",
      "name_en": "",
      "lat": 35.6767958,
      "lon": 139.7689319,
      "amenity": "cafe",
      "amenity_label": "カフェ",
      "cuisine": "",
      "opening_hours": "",
      "phone": "+81-3-3273-3184",
      "website": "",
      "addr": ""
    },
    {
      "id": 4451072591,
      "name": "天ぷらめし金子半之助",
      "name_en": "Tenpurameshi Kaneko Han'noSuke",
      "lat": 35.686285,
      "lon": 139.77569,
      "amenity": "restaurant",
      "amenity_label": "レストラン",
      "cuisine": "",
      "opening_hours": "",
      "phone": "",
      "website": "",
      "addr": ""
    },
    {
      "id": 4451080190,
      "name": "銀だこ・ハイボール酒場八重洲北口店",
      "name_en": "Takoyaki restaurant",
      "lat": 35.681618,
      "lon": 139.7714309,
      "amenity": "restaurant",
      "amenity_label": "レストラン",
      "cuisine": "japanese",
      "opening_hours": "",
      "phone": "",
      "website": "",
      "addr": ""
    },
    {
      "id": 4465721889,
      "name": "Bar Moment",
      "name_en": "",
      "lat": 35.6896058,
      "lon": 139.7705485,
      "amenity": "bar",
      "amenity_label": "バー",
      "cuisine": "",
      "opening_hours": "",
      "phone": "",
      "website": "",
      "addr": ""
    },
    {
      "id": 4465721890,
      "name": "Butcher Brothers",
      "name_en": "",
      "lat": 35.6891946,
      "lon": 139.7711594,
      "amenity": "restaurant",
      "amenity_label": "レストラン",
      "cuisine": "barbecue",
      "opening_hours": "",
      "phone": "",
      "website": "",
      "addr": ""
    },
    {
      "id": 4465721891,
      "name": "Cafe Toyo",
      "name_en": "",
      "lat": 35.6831235,
      "lon": 139.7738496,
      "amenity": "cafe",
      "amenity_label": "カフェ",
      "cuisine": "",
      "opening_hours": "Mo-Fr 10:00-22:00; Sa,PH 11:00-20:00",
      "phone": "+81 3 3271 0007",
      "website": "",
      "addr": ""
    },
    {
      "id": 4465721892,
      "name": "Café Aimée Vibert",
      "name_en": "",
      "lat": 35.6864045,
      "lon": 139.7741125,
      "amenity": "cafe",
      "amenity_label": "カフェ",
      "cuisine": "",
      "opening_hours": "",
      "phone": "",
      "website": "",
      "addr": ""
    },
    {
      "id": 4465721896,
      "name": "Hub",
      "name_en": "",
      "lat": 35.6916427,
      "lon": 139.7715389,
      "amenity": "pub",
      "amenity_label": "パブ",
      "cuisine": "fish_and_chips;friture;hotdog;italian_pizza",
      "opening_hours": "Mo-Th 17:00-00:00; Fr 16:00-01:00; Sa 16:00-00:00",
      "phone": "",
      "website": "",
      "addr": ""
    },
    {
      "id": 4465721897,
      "name": "Kurara",
      "name_en": "",
      "lat": 35.6895955,
      "lon": 139.7703936,
      "amenity": "pub",
      "amenity_label": "パブ",
      "cuisine": "",
      "opening_hours": "",
      "phone": "",
      "website": "",
      "addr": ""
    },
    {
      "id": 4465721899,
      "name": "Rump cap",
      "name_en": "",
      "lat": 35.6911842,
      "lon": 139.7709916,
      "amenity": "restaurant",
      "amenity_label": "レストラン",
      "cuisine": "barbecue",
      "opening_hours": "",
      "phone": "",
      "website": "",
      "addr": ""
    },
    {
      "id": 4465721900,
      "name": "Godiva",
      "name_en": "",
      "lat": 35.6828414,
      "lon": 139.7735264,
      "amenity": "cafe",
      "amenity_label": "カフェ",
      "cuisine": "coffee_shop",
      "opening_hours": "",
      "phone": "+81 3-6910-3050",
      "website": "",
      "addr": ""
    },
    {
      "id": 4465721901,
      "name": "Trattoria Yue",
      "name_en": "",
      "lat": 35.6844264,
      "lon": 139.7738966,
      "amenity": "restaurant",
      "amenity_label": "レストラン",
      "cuisine": "italian",
      "opening_hours": "",
      "phone": "",
      "website": "",
      "addr": ""
    },
    {
      "id": 4465721907,
      "name": "ウルフ焼肉",
      "name_en": "Wolf yakiniku",
      "lat": 35.6897142,
      "lon": 139.7708657,
      "amenity": "restaurant",
      "amenity_label": "レストラン",
      "cuisine": "barbecue",
      "opening_hours": "",
      "phone": "",
      "website": "",
      "addr": ""
    },
    {
      "id": 4465721908,
      "name": "エクセルシオール カフェ",
      "name_en": "EXCELSIOR CAFE",
      "lat": 35.6833131,
      "lon": 139.7739703,
      "amenity": "cafe",
      "amenity_label": "カフェ",
      "cuisine": "coffee_shop",
      "opening_hours": "Mo-Fr 07:00-22:30; Sa,Su,PH 08:00-21:00",
      "phone": "+81 3 3516 7827",
      "website": "",
      "addr": ""
    },
    {
      "id": 4465721914,
      "name": "ルノアール",
      "name_en": "Renoir",
      "lat": 35.6814835,
      "lon": 139.7726084,
      "amenity": "cafe",
      "amenity_label": "カフェ",
      "cuisine": "coffee_shop",
      "opening_hours": "",
      "phone": "",
      "website": "",
      "addr": ""
    },
    {
      "id": 4465721916,
      "name": "地ビールハウス 蔵くら",
      "name_en": "Kura kura",
      "lat": 35.6896913,
      "lon": 139.7708087,
      "amenity": "pub",
      "amenity_label": "パブ",
      "cuisine": "",
      "opening_hours": "",
      "phone": "+81-3-6206-8866",
      "website": "http://www.j-beer.com/",
      "addr": ""
    },
    {
      "id": 4465721921,
      "name": "松屋",
      "name_en": "Matsuya",
      "lat": 35.6907435,
      "lon": 139.7710541,
      "amenity": "fast_food",
      "amenity_label": "ファストフード",
      "cuisine": "beef_bowl",
      "opening_hours": "",
      "phone": "",
      "website": "",
      "addr": ""
    },
    {
      "id": 4469290393,
      "name": "T's たんたん",
      "name_en": "T's Tantan",
      "lat": 35.6795705,
      "lon": 139.766945,
      "amenity": "restaurant",
      "amenity_label": "レストラン",
      "cuisine": "ramen",
      "opening_hours": "",
      "phone": "",
      "website": "",
      "addr": ""
    },
    {
      "id": 4514611768,
      "name": "LES ROSIERS BISTROT DE L’OIE",
      "name_en": "",
      "lat": 35.6763981,
      "lon": 139.7687001,
      "amenity": "restaurant",
      "amenity_label": "レストラン",
      "cuisine": "french",
      "opening_hours": "",
      "phone": "",
      "website": "",
      "addr": ""
    },
    {
      "id": 4527477489,
      "name": "三重テラス",
      "name_en": "mie terrace Shinichi restaurant",
      "lat": 35.6872325,
      "lon": 139.7738292,
      "amenity": "restaurant",
      "amenity_label": "レストラン",
      "cuisine": "",
      "opening_hours": "10:00-20:00",
      "phone": "03-5542-1035",
      "website": "https://www.mieterrace.jp/",
      "addr": ""
    },
    {
      "id": 4534756191,
      "name": "日高屋",
      "name_en": "Hidakaya",
      "lat": 35.6910202,
      "lon": 139.7702619,
      "amenity": "fast_food",
      "amenity_label": "ファストフード",
      "cuisine": "noodle",
      "opening_hours": "24/7",
      "phone": "",
      "website": "",
      "addr": ""
    },
    {
      "id": 4536759390,
      "name": "伊勢廣 串燒",
      "name_en": "Isehiro",
      "lat": 35.6784612,
      "lon": 139.7703362,
      "amenity": "restaurant",
      "amenity_label": "レストラン",
      "cuisine": "",
      "opening_hours": "",
      "phone": "",
      "website": "",
      "addr": ""
    },
    {
      "id": 4536759392,
      "name": "harbs",
      "name_en": "",
      "lat": 35.6813047,
      "lon": 139.7635424,
      "amenity": "restaurant",
      "amenity_label": "レストラン",
      "cuisine": "",
      "opening_hours": "",
      "phone": "",
      "website": "",
      "addr": ""
    },
    {
      "id": 4547991185,
      "name": "アズーロ",
      "name_en": "",
      "lat": 35.6902036,
      "lon": 139.7686529,
      "amenity": "restaurant",
      "amenity_label": "レストラン",
      "cuisine": "pizza",
      "opening_hours": "",
      "phone": "",
      "website": "",
      "addr": ""
    },
    {
      "id": 4551324490,
      "name": "Bar Louis",
      "name_en": "",
      "lat": 35.6853384,
      "lon": 139.7751801,
      "amenity": "bar",
      "amenity_label": "バー",
      "cuisine": "",
      "opening_hours": "Mo-Sa 17:30-23:00",
      "phone": "",
      "website": "",
      "addr": ""
    },
    {
      "id": 4559957789,
      "name": "やんも",
      "name_en": "Yanmo",
      "lat": 35.677467,
      "lon": 139.7622136,
      "amenity": "restaurant",
      "amenity_label": "レストラン",
      "cuisine": "japanese;fish",
      "opening_hours": "",
      "phone": "+81 3 5224 3322",
      "website": "https://yanmo.co.jp/",
      "addr": ""
    },
    {
      "id": 4566270089,
      "name": "Ippodo tea store",
      "name_en": "",
      "lat": 35.6769902,
      "lon": 139.761642,
      "amenity": "cafe",
      "amenity_label": "カフェ",
      "cuisine": "",
      "opening_hours": "",
      "phone": "",
      "website": "",
      "addr": ""
    },
    {
      "id": 4624564104,
      "name": "ぽっぽ屋",
      "name_en": "",
      "lat": 35.6909499,
      "lon": 139.7781209,
      "amenity": "restaurant",
      "amenity_label": "レストラン",
      "cuisine": "",
      "opening_hours": "",
      "phone": "",
      "website": "",
      "addr": ""
    },
    {
      "id": 4628402088,
      "name": "小倉庵本店",
      "name_en": "",
      "lat": 35.6895561,
      "lon": 139.7770685,
      "amenity": "restaurant",
      "amenity_label": "レストラン",
      "cuisine": "japanese",
      "opening_hours": "",
      "phone": "",
      "website": "",
      "addr": ""
    },
    {
      "id": 4628402890,
      "name": "中華はな",
      "name_en": "",
      "lat": 35.6893862,
      "lon": 139.7770034,
      "amenity": "restaurant",
      "amenity_label": "レストラン",
      "cuisine": "chinese",
      "opening_hours": "",
      "phone": "",
      "website": "",
      "addr": ""
    },
    {
      "id": 4628402895,
      "name": "Chicken Place",
      "name_en": "",
      "lat": 35.6894412,
      "lon": 139.7768076,
      "amenity": "restaurant",
      "amenity_label": "レストラン",
      "cuisine": "",
      "opening_hours": "",
      "phone": "",
      "website": "",
      "addr": ""
    },
    {
      "id": 4628402900,
      "name": "そば処更科",
      "name_en": "",
      "lat": 35.6891626,
      "lon": 139.7765344,
      "amenity": "restaurant",
      "amenity_label": "レストラン",
      "cuisine": "japanese",
      "opening_hours": "",
      "phone": "",
      "website": "",
      "addr": ""
    },
    {
      "id": 4628578624,
      "name": "華味苑",
      "name_en": "",
      "lat": 35.6896344,
      "lon": 139.7784875,
      "amenity": "restaurant",
      "amenity_label": "レストラン",
      "cuisine": "chinese",
      "opening_hours": "",
      "phone": "",
      "website": "",
      "addr": ""
    },
    {
      "id": 4628578625,
      "name": "小伝馬町餃子",
      "name_en": "",
      "lat": 35.689891,
      "lon": 139.7773556,
      "amenity": "restaurant",
      "amenity_label": "レストラン",
      "cuisine": "chinese",
      "opening_hours": "",
      "phone": "",
      "website": "",
      "addr": ""
    },
    {
      "id": 4628578657,
      "name": "鮨処 膳",
      "name_en": "",
      "lat": 35.6898208,
      "lon": 139.777394,
      "amenity": "restaurant",
      "amenity_label": "レストラン",
      "cuisine": "",
      "opening_hours": "",
      "phone": "",
      "website": "",
      "addr": ""
    },
    {
      "id": 4628578658,
      "name": "肉寅",
      "name_en": "",
      "lat": 35.6897326,
      "lon": 139.7774315,
      "amenity": "pub",
      "amenity_label": "パブ",
      "cuisine": "",
      "opening_hours": "",
      "phone": "",
      "website": "",
      "addr": ""
    },
    {
      "id": 4628589584,
      "name": "カレーハウスCoCo壱番屋",
      "name_en": "",
      "lat": 35.6904703,
      "lon": 139.778494,
      "amenity": "restaurant",
      "amenity_label": "レストラン",
      "cuisine": "",
      "opening_hours": "",
      "phone": "",
      "website": "",
      "addr": ""
    },
    {
      "id": 4637127705,
      "name": "小町食堂",
      "name_en": "Komachi Shokudo",
      "lat": 35.6925741,
      "lon": 139.7771647,
      "amenity": "fast_food",
      "amenity_label": "ファストフード",
      "cuisine": "japanese",
      "opening_hours": "24/7",
      "phone": "+81 3 6240 9678",
      "website": "",
      "addr": ""
    },
    {
      "id": 4646514992,
      "name": "東京ラーメンストリート",
      "name_en": "Tokyo Ramen Street",
      "lat": 35.6803754,
      "lon": 139.7678774,
      "amenity": "food_court",
      "amenity_label": "フードコート",
      "cuisine": "",
      "opening_hours": "",
      "phone": "",
      "website": "https://www.tokyoeki-1bangai.co.jp/street/ramen/",
      "addr": ""
    },
    {
      "id": 4663566842,
      "name": "比內雞親子丼",
      "name_en": "",
      "lat": 35.679708,
      "lon": 139.7644101,
      "amenity": "restaurant",
      "amenity_label": "レストラン",
      "cuisine": "",
      "opening_hours": "",
      "phone": "",
      "website": "",
      "addr": ""
    },
    {
      "id": 4664594590,
      "name": "やまや",
      "name_en": "",
      "lat": 35.677368,
      "lon": 139.769585,
      "amenity": "restaurant",
      "amenity_label": "レストラン",
      "cuisine": "japanese",
      "opening_hours": "",
      "phone": "",
      "website": "https://www.y-shokukobo.com/store/kyobashi_e/",
      "addr": ""
    },
    {
      "id": 4674313190,
      "name": "松屋",
      "name_en": "Matsuya",
      "lat": 35.6913458,
      "lon": 139.7674922,
      "amenity": "fast_food",
      "amenity_label": "ファストフード",
      "cuisine": "beef_bowl",
      "opening_hours": "",
      "phone": "",
      "website": "",
      "addr": ""
    },
    {
      "id": 4674315690,
      "name": "小諸そば",
      "name_en": "Komoro Soba",
      "lat": 35.6904301,
      "lon": 139.766904,
      "amenity": "restaurant",
      "amenity_label": "レストラン",
      "cuisine": "",
      "opening_hours": "",
      "phone": "",
      "website": "",
      "addr": ""
    },
    {
      "id": 4674315791,
      "name": "大庄水産",
      "name_en": "",
      "lat": 35.6913742,
      "lon": 139.7662783,
      "amenity": "bar",
      "amenity_label": "バー",
      "cuisine": "",
      "opening_hours": "",
      "phone": "",
      "website": "",
      "addr": ""
    },
    {
      "id": 4674319089,
      "name": "ゆで太郎",
      "name_en": "Yudetaro",
      "lat": 35.6904188,
      "lon": 139.7642408,
      "amenity": "fast_food",
      "amenity_label": "ファストフード",
      "cuisine": "noodle",
      "opening_hours": "",
      "phone": "",
      "website": "",
      "addr": ""
    },
    {
      "id": 4674410890,
      "name": "おひげ寿司",
      "name_en": "Ohige Sushi",
      "lat": 35.6924688,
      "lon": 139.7775405,
      "amenity": "restaurant",
      "amenity_label": "レストラン",
      "cuisine": "sushi",
      "opening_hours": "",
      "phone": "",
      "website": "",
      "addr": ""
    },
    {
      "id": 4674416191,
      "name": "一亀",
      "name_en": "Ichikame",
      "lat": 35.6923596,
      "lon": 139.7776245,
      "amenity": "bar",
      "amenity_label": "バー",
      "cuisine": "",
      "opening_hours": "",
      "phone": "",
      "website": "",
      "addr": ""
    },
    {
      "id": 4674453504,
      "name": "たけうま",
      "name_en": "",
      "lat": 35.691016,
      "lon": 139.7784183,
      "amenity": "bar",
      "amenity_label": "バー",
      "cuisine": "",
      "opening_hours": "",
      "phone": "",
      "website": "",
      "addr": ""
    },
    {
      "id": 4674453506,
      "name": "小紋",
      "name_en": "Komon",
      "lat": 35.6923651,
      "lon": 139.7788817,
      "amenity": "bar",
      "amenity_label": "バー",
      "cuisine": "",
      "opening_hours": "",
      "phone": "",
      "website": "",
      "addr": ""
    },
    {
      "id": 4674457499,
      "name": "ナタラージ",
      "name_en": "Nataraji",
      "lat": 35.6924987,
      "lon": 139.7787207,
      "amenity": "restaurant",
      "amenity_label": "レストラン",
      "cuisine": "indian",
      "opening_hours": "",
      "phone": "",
      "website": "",
      "addr": ""
    },
    {
      "id": 4674486401,
      "name": "伝六",
      "name_en": "",
      "lat": 35.69153,
      "lon": 139.7770068,
      "amenity": "bar",
      "amenity_label": "バー",
      "cuisine": "",
      "opening_hours": "",
      "phone": "",
      "website": "",
      "addr": ""
    },
    {
      "id": 4713166583,
      "name": "グルガオン",
      "name_en": "",
      "lat": 35.6746063,
      "lon": 139.7673684,
      "amenity": "restaurant",
      "amenity_label": "レストラン",
      "cuisine": "indian",
      "opening_hours": "",
      "phone": "",
      "website": "",
      "addr": ""
    },
    {
      "id": 4721324291,
      "name": "Pit ねのひ",
      "name_en": "Pit Nenohi",
      "lat": 35.6834274,
      "lon": 139.7662946,
      "amenity": "cafe",
      "amenity_label": "カフェ",
      "cuisine": "",
      "opening_hours": "",
      "phone": "03-6212-8088",
      "website": "",
      "addr": ""
    },
    {
      "id": 4726141089,
      "name": "Brasserie St Bernardus",
      "name_en": "",
      "lat": 35.6905259,
      "lon": 139.7697915,
      "amenity": "bar",
      "amenity_label": "バー",
      "cuisine": "",
      "opening_hours": "",
      "phone": "",
      "website": "",
      "addr": ""
    },
    {
      "id": 4729095995,
      "name": "サイゼリヤ",
      "name_en": "Saizeriya",
      "lat": 35.674227,
      "lon": 139.764824,
      "amenity": "restaurant",
      "amenity_label": "レストラン",
      "cuisine": "italian",
      "opening_hours": "",
      "phone": "+81 3-3538-3977",
      "website": "https://www.saizeriya.co.jp/",
      "addr": ""
    },
    {
      "id": 4730286194,
      "name": "たいめいけん",
      "name_en": "Taimeiken",
      "lat": 35.6844153,
      "lon": 139.7751187,
      "amenity": "restaurant",
      "amenity_label": "レストラン",
      "cuisine": "",
      "opening_hours": "off",
      "phone": "+81 3 3271 2463",
      "website": "https://www.taimeiken.co.jp/",
      "addr": ""
    },
    {
      "id": 4757003424,
      "name": "十一房咖啡店",
      "name_en": "",
      "lat": 35.6748809,
      "lon": 139.7657577,
      "amenity": "cafe",
      "amenity_label": "カフェ",
      "cuisine": "",
      "opening_hours": "",
      "phone": "",
      "website": "",
      "addr": ""
    },
    {
      "id": 4768263321,
      "name": "西洋料理 島",
      "name_en": "Shima (Steak Sandwich)",
      "lat": 35.6790424,
      "lon": 139.7728545,
      "amenity": "restaurant",
      "amenity_label": "レストラン",
      "cuisine": "steak_house",
      "opening_hours": "Mo-Sa 12:00-13:00,18:00-21:00",
      "phone": "+81 3 3271 7889",
      "website": "http://www.jimu-uke.co.jp/shima_site/",
      "addr": ""
    },
    {
      "id": 4849389033,
      "name": "KAITEKI CAFE",
      "name_en": "",
      "lat": 35.686285,
      "lon": 139.7654762,
      "amenity": "cafe",
      "amenity_label": "カフェ",
      "cuisine": "",
      "opening_hours": "",
      "phone": "",
      "website": "",
      "addr": ""
    },
    {
      "id": 4863211822,
      "name": "神田ラーメンわいず",
      "name_en": "",
      "lat": 35.6910567,
      "lon": 139.7693166,
      "amenity": "restaurant",
      "amenity_label": "レストラン",
      "cuisine": "",
      "opening_hours": "",
      "phone": "",
      "website": "",
      "addr": ""
    },
    {
      "id": 5006157521,
      "name": "なみへい",
      "name_en": "NAMIHEI",
      "lat": 35.6890302,
      "lon": 139.769461,
      "amenity": "bar",
      "amenity_label": "バー",
      "cuisine": "",
      "opening_hours": "",
      "phone": "",
      "website": "",
      "addr": ""
    },
    {
      "id": 5029723752,
      "name": "Maison Kayser",
      "name_en": "",
      "lat": 35.6826862,
      "lon": 139.7743971,
      "amenity": "cafe",
      "amenity_label": "カフェ",
      "cuisine": "",
      "opening_hours": "Mo-Fr 07:00-22:00; Sa-Su,PH 10:00-21:00",
      "phone": "+81 3 3516 0030",
      "website": "http://maisonkayser.co.jp/location/coredo-nihonbashi/",
      "addr": ""
    },
    {
      "id": 5031507594,
      "name": "ビリヤニ大澤",
      "name_en": "Biryani Osawa",
      "lat": 35.6921978,
      "lon": 139.7660515,
      "amenity": "restaurant",
      "amenity_label": "レストラン",
      "cuisine": "asian",
      "opening_hours": "",
      "phone": "",
      "website": "https://osawa.biriyani.co.jp/",
      "addr": ""
    },
    {
      "id": 5031507596,
      "name": "米本珈琲",
      "name_en": "Yonemoto Coffee Shop",
      "lat": 35.6924451,
      "lon": 139.7635172,
      "amenity": "cafe",
      "amenity_label": "カフェ",
      "cuisine": "",
      "opening_hours": "",
      "phone": "",
      "website": "",
      "addr": ""
    },
    {
      "id": 5031507598,
      "name": "龍岡",
      "name_en": "",
      "lat": 35.6927323,
      "lon": 139.7637844,
      "amenity": "restaurant",
      "amenity_label": "レストラン",
      "cuisine": "",
      "opening_hours": "",
      "phone": "",
      "website": "",
      "addr": ""
    },
    {
      "id": 5031577936,
      "name": "食鳥肉専門店 若どり屋",
      "name_en": "",
      "lat": 35.6928983,
      "lon": 139.7676531,
      "amenity": "pub",
      "amenity_label": "パブ",
      "cuisine": "",
      "opening_hours": "",
      "phone": "",
      "website": "",
      "addr": ""
    },
    {
      "id": 5053226921,
      "name": "お好み焼 きじ",
      "name_en": "Okonomiyaki Kiji",
      "lat": 35.6762341,
      "lon": 139.7656501,
      "amenity": "restaurant",
      "amenity_label": "レストラン",
      "cuisine": "japanese",
      "opening_hours": "",
      "phone": "",
      "website": "",
      "addr": ""
    },
    {
      "id": 5053420822,
      "name": "根室花まる",
      "name_en": "Hanamaru",
      "lat": 35.6796222,
      "lon": 139.7651732,
      "amenity": "restaurant",
      "amenity_label": "レストラン",
      "cuisine": "sushi",
      "opening_hours": "11:00-23:00",
      "phone": "+81-3-6269-9026",
      "website": "https://www.sushi-hanamaru.com",
      "addr": ""
    },
    {
      "id": 5053829029,
      "name": "HIGASHIYA GINZA",
      "name_en": "",
      "lat": 35.6742964,
      "lon": 139.7677894,
      "amenity": "cafe",
      "amenity_label": "カフェ",
      "cuisine": "",
      "opening_hours": "",
      "phone": "",
      "website": "",
      "addr": ""
    },
    {
      "id": 5053847527,
      "name": "The Palace Lounge",
      "name_en": "",
      "lat": 35.6850088,
      "lon": 139.7614803,
      "amenity": "cafe",
      "amenity_label": "カフェ",
      "cuisine": "",
      "opening_hours": "",
      "phone": "",
      "website": "",
      "addr": ""
    },
    {
      "id": 5059226390,
      "name": "吉そば神田店",
      "name_en": "",
      "lat": 35.6915101,
      "lon": 139.7704295,
      "amenity": "restaurant",
      "amenity_label": "レストラン",
      "cuisine": "japanese;noodle",
      "opening_hours": "24/7",
      "phone": "",
      "website": "",
      "addr": ""
    },
    {
      "id": 5112452869,
      "name": "ラーメンの龍岡",
      "name_en": "",
      "lat": 35.6925104,
      "lon": 139.7632246,
      "amenity": "restaurant",
      "amenity_label": "レストラン",
      "cuisine": "",
      "opening_hours": "",
      "phone": "",
      "website": "",
      "addr": ""
    },
    {
      "id": 5112452870,
      "name": "江戸や",
      "name_en": "",
      "lat": 35.6927295,
      "lon": 139.7638301,
      "amenity": "restaurant",
      "amenity_label": "レストラン",
      "cuisine": "japanese",
      "opening_hours": "",
      "phone": "",
      "website": "",
      "addr": ""
    },
    {
      "id": 5159019923,
      "name": "東京會舘 銀座スカイラウンジ",
      "name_en": "Ginza Sky Lounge",
      "lat": 35.6749123,
      "lon": 139.7643562,
      "amenity": "restaurant",
      "amenity_label": "レストラン",
      "cuisine": "",
      "opening_hours": "11:30-22:00",
      "phone": "+81 50 3187 8713",
      "website": "",
      "addr": ""
    },
    {
      "id": 5162042180,
      "name": "日本橋ふくしま館 MIDETTE",
      "name_en": "",
      "lat": 35.6890798,
      "lon": 139.7725741,
      "amenity": "restaurant",
      "amenity_label": "レストラン",
      "cuisine": "regional",
      "opening_hours": "",
      "phone": "",
      "website": "",
      "addr": ""
    },
    {
      "id": 5166837222,
      "name": "小諸そば",
      "name_en": "",
      "lat": 35.6760047,
      "lon": 139.7774504,
      "amenity": "fast_food",
      "amenity_label": "ファストフード",
      "cuisine": "",
      "opening_hours": "",
      "phone": "",
      "website": "",
      "addr": ""
    },
    {
      "id": 5166837224,
      "name": "ロイヤルホスト",
      "name_en": "Royal Host",
      "lat": 35.6767408,
      "lon": 139.7784734,
      "amenity": "restaurant",
      "amenity_label": "レストラン",
      "cuisine": "japanese;italian;french",
      "opening_hours": "",
      "phone": "",
      "website": "",
      "addr": ""
    },
    {
      "id": 5166837230,
      "name": "鳥元",
      "name_en": "",
      "lat": 35.6757066,
      "lon": 139.7778041,
      "amenity": "pub",
      "amenity_label": "パブ",
      "cuisine": "",
      "opening_hours": "",
      "phone": "",
      "website": "",
      "addr": ""
    },
    {
      "id": 5166837234,
      "name": "デニーズ",
      "name_en": "Denny's",
      "lat": 35.6761477,
      "lon": 139.7780669,
      "amenity": "restaurant",
      "amenity_label": "レストラン",
      "cuisine": "western;japanese",
      "opening_hours": "",
      "phone": "",
      "website": "",
      "addr": ""
    },
    {
      "id": 5166837235,
      "name": "めいぷる",
      "name_en": "",
      "lat": 35.6759341,
      "lon": 139.7771944,
      "amenity": "cafe",
      "amenity_label": "カフェ",
      "cuisine": "",
      "opening_hours": "",
      "phone": "",
      "website": "",
      "addr": ""
    },
    {
      "id": 5166837236,
      "name": "吉野家",
      "name_en": "Yoshinoya",
      "lat": 35.6772703,
      "lon": 139.778191,
      "amenity": "fast_food",
      "amenity_label": "ファストフード",
      "cuisine": "beef_bowl",
      "opening_hours": "",
      "phone": "",
      "website": "",
      "addr": ""
    },
    {
      "id": 5166837238,
      "name": "ほまれ",
      "name_en": "",
      "lat": 35.6762169,
      "lon": 139.777402,
      "amenity": "pub",
      "amenity_label": "パブ",
      "cuisine": "",
      "opening_hours": "",
      "phone": "",
      "website": "",
      "addr": ""
    },
    {
      "id": 5166837239,
      "name": "サイゼリヤ",
      "name_en": "Saizeriya",
      "lat": 35.6770706,
      "lon": 139.7786415,
      "amenity": "restaurant",
      "amenity_label": "レストラン",
      "cuisine": "italian",
      "opening_hours": "10:00-24:00",
      "phone": "+81-3-5540-6070",
      "website": "https://shop.saizeriya.co.jp/sz_restaurant/spot/detail?code=1540",
      "addr": ""
    },
    {
      "id": 5166837242,
      "name": "はなまるうどん",
      "name_en": "Hanamarūdon",
      "lat": 35.6774488,
      "lon": 139.7783137,
      "amenity": "restaurant",
      "amenity_label": "レストラン",
      "cuisine": "japanese;udon",
      "opening_hours": "",
      "phone": "",
      "website": "",
      "addr": ""
    },
    {
      "id": 5166837243,
      "name": "梨の家",
      "name_en": "",
      "lat": 35.675874,
      "lon": 139.7773694,
      "amenity": "restaurant",
      "amenity_label": "レストラン",
      "cuisine": "korean",
      "opening_hours": "",
      "phone": "",
      "website": "",
      "addr": ""
    },
    {
      "id": 5166837244,
      "name": "カドハチ",
      "name_en": "",
      "lat": 35.6763362,
      "lon": 139.7770555,
      "amenity": "pub",
      "amenity_label": "パブ",
      "cuisine": "",
      "opening_hours": "",
      "phone": "",
      "website": "",
      "addr": ""
    },
    {
      "id": 5201862126,
      "name": "Shake Shack",
      "name_en": "Shake Shack",
      "lat": 35.6762942,
      "lon": 139.763455,
      "amenity": "fast_food",
      "amenity_label": "ファストフード",
      "cuisine": "burger",
      "opening_hours": "Mo-Su 11:00-22:00",
      "phone": "+81 3-6273-4071",
      "website": "https://www.shakeshack.jp/location/yurakucho",
      "addr": ""
    },
    {
      "id": 5208140040,
      "name": "エシレメゾンデュブール",
      "name_en": "",
      "lat": 35.678632,
      "lon": 139.7626199,
      "amenity": "cafe",
      "amenity_label": "カフェ",
      "cuisine": "",
      "opening_hours": "Mo-Su 10:00-20:00",
      "phone": "",
      "website": "",
      "addr": ""
    },
    {
      "id": 5208155421,
      "name": "サダハルアオキ",
      "name_en": "",
      "lat": 35.6762888,
      "lon": 139.7619345,
      "amenity": "cafe",
      "amenity_label": "カフェ",
      "cuisine": "",
      "opening_hours": "Mo-Su 11:00-19:15",
      "phone": "",
      "website": "",
      "addr": ""
    },
    {
      "id": 5224039524,
      "name": "鍛冶屋文蔵",
      "name_en": "",
      "lat": 35.6773492,
      "lon": 139.7652392,
      "amenity": "pub",
      "amenity_label": "パブ",
      "cuisine": "",
      "opening_hours": "",
      "phone": "",
      "website": "",
      "addr": ""
    },
    {
      "id": 5224039525,
      "name": "陳家私菜",
      "name_en": "",
      "lat": 35.6771825,
      "lon": 139.7651647,
      "amenity": "restaurant",
      "amenity_label": "レストラン",
      "cuisine": "",
      "opening_hours": "",
      "phone": "",
      "website": "",
      "addr": ""
    },
    {
      "id": 5224039526,
      "name": "小樽横丁",
      "name_en": "",
      "lat": 35.6772678,
      "lon": 139.7652092,
      "amenity": "pub",
      "amenity_label": "パブ",
      "cuisine": "",
      "opening_hours": "",
      "phone": "",
      "website": "",
      "addr": ""
    },
    {
      "id": 5224039528,
      "name": "日本橋紅とん",
      "name_en": "",
      "lat": 35.6770485,
      "lon": 139.7650984,
      "amenity": "pub",
      "amenity_label": "パブ",
      "cuisine": "",
      "opening_hours": "",
      "phone": "",
      "website": "",
      "addr": ""
    },
    {
      "id": 5224039529,
      "name": "鳥良商店",
      "name_en": "",
      "lat": 35.6771095,
      "lon": 139.7651283,
      "amenity": "pub",
      "amenity_label": "パブ",
      "cuisine": "",
      "opening_hours": "",
      "phone": "",
      "website": "",
      "addr": ""
    },
    {
      "id": 5224058914,
      "name": "焼肉　吟次郎",
      "name_en": "",
      "lat": 35.6783489,
      "lon": 139.7656122,
      "amenity": "restaurant",
      "amenity_label": "レストラン",
      "cuisine": "japanese",
      "opening_hours": "",
      "phone": "",
      "website": "",
      "addr": ""
    },
    {
      "id": 5224058917,
      "name": "KoKo",
      "name_en": "",
      "lat": 35.6777992,
      "lon": 139.7654023,
      "amenity": "fast_food",
      "amenity_label": "ファストフード",
      "cuisine": "",
      "opening_hours": "",
      "phone": "",
      "website": "",
      "addr": ""
    },
    {
      "id": 5224058918,
      "name": "築地活鮮市場",
      "name_en": "",
      "lat": 35.6789547,
      "lon": 139.76591,
      "amenity": "pub",
      "amenity_label": "パブ",
      "cuisine": "",
      "opening_hours": "",
      "phone": "",
      "website": "",
      "addr": ""
    },
    {
      "id": 5224058919,
      "name": "屋台屋 博多劇場",
      "name_en": "",
      "lat": 35.6780522,
      "lon": 139.7655036,
      "amenity": "pub",
      "amenity_label": "パブ",
      "cuisine": "",
      "opening_hours": "",
      "phone": "",
      "website": "",
      "addr": ""
    },
    {
      "id": 5237380324,
      "name": "ワインバル　miyabi",
      "name_en": "miyabi",
      "lat": 35.6778067,
      "lon": 139.7736588,
      "amenity": "pub",
      "amenity_label": "パブ",
      "cuisine": "",
      "opening_hours": "",
      "phone": "",
      "website": "",
      "addr": ""
    },
    {
      "id": 5237380332,
      "name": "麺や　七菜",
      "name_en": "Shichisai",
      "lat": 35.6772217,
      "lon": 139.7762418,
      "amenity": "restaurant",
      "amenity_label": "レストラン",
      "cuisine": "ramen",
      "opening_hours": "",
      "phone": "+81-3-5566-9355",
      "website": "https://shichisai.com/",
      "addr": ""
    },
    {
      "id": 5237380334,
      "name": "牛角",
      "name_en": "Gyū-Kaku",
      "lat": 35.6769341,
      "lon": 139.7768654,
      "amenity": "restaurant",
      "amenity_label": "レストラン",
      "cuisine": "barbecue",
      "opening_hours": "",
      "phone": "",
      "website": "",
      "addr": ""
    },
    {
      "id": 5237380336,
      "name": "魚鮮水産",
      "name_en": "",
      "lat": 35.6768709,
      "lon": 139.7770075,
      "amenity": "pub",
      "amenity_label": "パブ",
      "cuisine": "",
      "opening_hours": "",
      "phone": "",
      "website": "",
      "addr": ""
    },
    {
      "id": 5237380338,
      "name": "PRONTO",
      "name_en": "PRONTO",
      "lat": 35.6752362,
      "lon": 139.7769868,
      "amenity": "cafe",
      "amenity_label": "カフェ",
      "cuisine": "coffee_shop",
      "opening_hours": "",
      "phone": "",
      "website": "",
      "addr": ""
    },
    {
      "id": 5237380342,
      "name": "コロラド",
      "name_en": "",
      "lat": 35.6749012,
      "lon": 139.7767769,
      "amenity": "cafe",
      "amenity_label": "カフェ",
      "cuisine": "",
      "opening_hours": "",
      "phone": "",
      "website": "",
      "addr": ""
    },
    {
      "id": 5237380343,
      "name": "日高屋",
      "name_en": "Hidakaya",
      "lat": 35.674838,
      "lon": 139.7767273,
      "amenity": "fast_food",
      "amenity_label": "ファストフード",
      "cuisine": "noodle",
      "opening_hours": "Mo-Su 11:00-04:00",
      "phone": "",
      "website": "",
      "addr": ""
    },
    {
      "id": 5237380344,
      "name": "中華料理　伸来軒",
      "name_en": "",
      "lat": 35.6747443,
      "lon": 139.7765194,
      "amenity": "restaurant",
      "amenity_label": "レストラン",
      "cuisine": "",
      "opening_hours": "",
      "phone": "",
      "website": "",
      "addr": ""
    },
    {
      "id": 5237380345,
      "name": "おそば　あさだ",
      "name_en": "",
      "lat": 35.6747433,
      "lon": 139.7764845,
      "amenity": "restaurant",
      "amenity_label": "レストラン",
      "cuisine": "",
      "opening_hours": "",
      "phone": "",
      "website": "",
      "addr": ""
    },
    {
      "id": 5237380352,
      "name": "そばDining すが",
      "name_en": "Buckwheat Dining Sushi",
      "lat": 35.6747536,
      "lon": 139.775136,
      "amenity": "restaurant",
      "amenity_label": "レストラン",
      "cuisine": "",
      "opening_hours": "",
      "phone": "",
      "website": "",
      "addr": ""
    },
    {
      "id": 5237380353,
      "name": "八丁堀　宗佑",
      "name_en": "",
      "lat": 35.6747634,
      "lon": 139.7749966,
      "amenity": "pub",
      "amenity_label": "パブ",
      "cuisine": "",
      "opening_hours": "",
      "phone": "",
      "website": "",
      "addr": ""
    },
    {
      "id": 5237380354,
      "name": "茂助",
      "name_en": "",
      "lat": 35.6747596,
      "lon": 139.7749402,
      "amenity": "pub",
      "amenity_label": "パブ",
      "cuisine": "",
      "opening_hours": "",
      "phone": "",
      "website": "",
      "addr": ""
    },
    {
      "id": 5237380355,
      "name": "地粉つけうどん　福福",
      "name_en": "",
      "lat": 35.6747618,
      "lon": 139.7748376,
      "amenity": "restaurant",
      "amenity_label": "レストラン",
      "cuisine": "",
      "opening_hours": "",
      "phone": "",
      "website": "",
      "addr": ""
    },
    {
      "id": 5237380356,
      "name": "Vino daily stand",
      "name_en": "",
      "lat": 35.6747634,
      "lon": 139.7746787,
      "amenity": "cafe",
      "amenity_label": "カフェ",
      "cuisine": "",
      "opening_hours": "",
      "phone": "",
      "website": "",
      "addr": ""
    },
    {
      "id": 5237380357,
      "name": "小諸そば",
      "name_en": "Kumoro Soba",
      "lat": 35.6747699,
      "lon": 139.774611,
      "amenity": "restaurant",
      "amenity_label": "レストラン",
      "cuisine": "",
      "opening_hours": "",
      "phone": "",
      "website": "",
      "addr": ""
    },
    {
      "id": 5237380358,
      "name": "そば処　桂庵",
      "name_en": "",
      "lat": 35.6748184,
      "lon": 139.7743548,
      "amenity": "restaurant",
      "amenity_label": "レストラン",
      "cuisine": "",
      "opening_hours": "",
      "phone": "",
      "website": "",
      "addr": ""
    },
    {
      "id": 5237380359,
      "name": "中国食坊",
      "name_en": "",
      "lat": 35.6748021,
      "lon": 139.7743227,
      "amenity": "restaurant",
      "amenity_label": "レストラン",
      "cuisine": "",
      "opening_hours": "",
      "phone": "",
      "website": "",
      "addr": ""
    },